[{"city": "BAGNOLET", "address": "RUE DES CHAMPEAUX (PRES DE LA GARE ROUTIERE)", "name": "CHAMPEAUX (BAGNOLET)", "latitude": 48.8645278209514, "zip_code": "93170", "number": 31705, "longitude": 2.416170724425901}, {"city": "PARIS", "address": "52 RUE D'ENGHIEN / ANGLE RUE DU FAUBOURG POISSONIERE", "name": "POISSONNI\u00c3\u02c6RE - ENGHIEN", "latitude": 48.87242006305313, "zip_code": "75010", "number": 10042, "longitude": 2.348395236282807}, {"city": "PARIS", "address": "74 BOULEVARD DES BATIGNOLLES", "name": "METRO ROME", "latitude": 48.882148945631904, "zip_code": "75008", "number": 8020, "longitude": 2.319860054774211}, {"city": "PARIS", "address": "37 RUE CASANOVA", "name": "RUE DE LA PAIX", "latitude": 48.8682170167744, "zip_code": "75001", "number": 1022, "longitude": 2.330493511399174}, {"city": "PANTIN", "address": "139 AVENUE JEAN LOLIVE / MAIL CHARLES DE GAULLE", "name": "DE GAULLE (PANTIN)", "latitude": 48.893268664697416, "zip_code": "93500", "number": 35014, "longitude": 2.412715733388685}, {"city": "PARIS", "address": "57 & 36 RUE JULIEN LACROIX", "name": "PARC DE BELLEVILLE", "latitude": 48.870393671603765, "zip_code": "75020", "number": 20040, "longitude": 2.384222472712587}, {"city": "PUTEAUX", "address": "BOULEVARD ALEXANDRE SOLJENITSYNE", "name": "SOLJENITSYNE (PUTEAUX)", "latitude": 48.884478, "zip_code": "92800", "number": 28002, "longitude": 2.24772065}, {"city": "PARIS", "address": "48 RUE OLIVIER DE SERRES", "name": "SERRES", "latitude": 48.834658862792736, "zip_code": "75015", "number": 15111, "longitude": 2.295789480315903}, {"city": "PARIS", "address": "ROUTE DE L'ARTILLERIE", "name": "PYRAMIDE ARTILLERIE", "latitude": 48.839041145908176, "zip_code": "75012", "number": 12124, "longitude": 2.437655339082955}, {"city": "PARIS", "address": "56 RUE SAINT GEORGES", "name": "SAINT GEORGES", "latitude": 48.877872278317966, "zip_code": "75009", "number": 9021, "longitude": 2.337446804203667}, {"city": "PARIS", "address": "62 RUE DE LILLE", "name": "MUS\u00c3\u2030E D'ORSAY", "latitude": 48.85971010443503, "zip_code": "75007", "number": 7007, "longitude": 2.325809024625026}, {"city": "PARIS", "address": "103 RUE DES PYRENNEES", "name": "PYR\u00c3\u2030N\u00c3\u2030ES-DAGORNO", "latitude": 48.85550135398888, "zip_code": "75020", "number": 20011, "longitude": 2.405168520639166}, {"city": "PARIS", "address": "27 RUE GAY LUSSAC", "name": "SAINT JACQUES GAY LUSSAC", "latitude": 48.844730256132095, "zip_code": "75005", "number": 5005, "longitude": 2.341923944866407}, {"city": "AUBERVILLIERS", "address": "FACE 143 RUE ANDRE KARMAN", "name": "KARMAN (AUBERVILLIERS)", "latitude": 48.910143671003794, "zip_code": "93300", "number": 33006, "longitude": 2.385052018244114}, {"city": "PARIS", "address": "FACE 27 RUE QUINCAMPOIX", "name": "BEAUBOURG PLACE MICHELET", "latitude": 48.86008832610481, "zip_code": "75004", "number": 4020, "longitude": 2.350148335920203}, {"city": "PARIS", "address": "137 BOULEVARD MENILMONTANT", "name": "MENILMONTANT OBERKAMPF", "latitude": 48.8666176586814, "zip_code": "75011", "number": 11029, "longitude": 2.38301344041578}, {"city": "PARIS", "address": "7 CITE VANEAU", "name": "CITE VANEAU", "latitude": 48.854268334051035, "zip_code": "75007", "number": 7012, "longitude": 2.319454010061415}, {"city": "PARIS", "address": "124 RUE PETIT", "name": "PETIT HONNEGER", "latitude": 48.886389634924626, "zip_code": "75019", "number": 19019, "longitude": 2.393637514433606}, {"city": "PARIS", "address": "36 RUE DE LA SANTE", "name": "ARAGO 2", "latitude": 48.83512886504287, "zip_code": "75014", "number": 14113, "longitude": 2.34157863455693}, {"city": "PARIS", "address": "54 BOULEVARD DE GRENELLE", "name": "DUPLEIX", "latitude": 48.851396721123486, "zip_code": "75015", "number": 15028, "longitude": 2.291889313228121}, {"city": "NEUILLY", "address": "195 AVENUE CHARLES DE GAULLE", "name": "DE GAULLE 3 (NEUILLY)", "latitude": 48.8842989293728, "zip_code": "92200", "number": 22005, "longitude": 2.26099177209953}, {"city": "PARIS", "address": "1 rue Vidal de la Blache / Angle 78 boulevard Mortier", "name": "PORTE DE MENILMONTANT", "latitude": 48.8691543609174, "zip_code": "75020", "number": 20027, "longitude": 2.40932246879487}, {"city": "PARIS", "address": "FACE 36 BOULEVARD DE CLICHY", "name": "PIGALLE GERMAIN PILLON", "latitude": 48.882728090545086, "zip_code": "75018", "number": 18042, "longitude": 2.336262639016585}, {"city": "PARIS", "address": "223 RUE DU FAUBOURG SAINT ANTOINE", "name": "FAIDHERBE CHALIGNY", "latitude": 48.850379753879935, "zip_code": "75011", "number": 11008, "longitude": 2.38386933547444}, {"city": "PARIS", "address": "9 RUE LASSUS", "name": "JOURDAIN", "latitude": 48.8755503947562, "zip_code": "75019", "number": 19038, "longitude": 2.389038160847546}, {"city": "PARIS", "address": "76 AVENUE D'IVRY", "name": "IVRY BAUDICOURT", "latitude": 48.824695995415006, "zip_code": "75013", "number": 13037, "longitude": 2.363106073577468}, {"city": "PARIS", "address": "111 BOULEVARD MASSENA", "name": "PORTE DE CHOISY", "latitude": 48.819941965677195, "zip_code": "75013", "number": 13040, "longitude": 2.36507858638901}, {"city": "", "address": "79 AV MOZART- 75016 PARIS", "name": "JASMIN", "latitude": 48.85286124871689, "zip_code": "", "number": 16027, "longitude": 2.268483570651513}, {"city": "PARIS", "address": "11 RUE DE L'ARRIVEE", "name": "PLACE BIENVENUE", "latitude": 48.84319882807092, "zip_code": "75015", "number": 15118, "longitude": 2.322257377279243}, {"city": "PARIS", "address": "41 RUE NOTRE DAME DES CHAMPS", "name": "NOTRE DAME DES CHAMPS", "latitude": 48.84479928858768, "zip_code": "75006", "number": 6006, "longitude": 2.329337755887181}, {"city": "PARIS", "address": "44 BIS RUE DE BAGNOLET", "name": "BAGNOLET-ORTEAUX", "latitude": 48.8571433920909, "zip_code": "75020", "number": 20015, "longitude": 2.398472}, {"city": "PARIS", "address": "95 RUE DE DUNKERQUE", "name": "SQUARE D'ANVERS", "latitude": 48.882633484310816, "zip_code": "75009", "number": 9005, "longitude": 2.344884406212207}, {"city": "PARIS", "address": "2 RUE JEAN MERMOZ", "name": "ROND POINT DES CHAMPS ELYSEES", "latitude": 48.86970884795243, "zip_code": "75008", "number": 8031, "longitude": 2.310714655374236}, {"city": "PARIS", "address": "FACE 67 BOULEVARD DE PICPUS", "name": "NATION PICPUS", "latitude": 48.846964359503055, "zip_code": "75012", "number": 12015, "longitude": 2.399868277428793}, {"city": "PARIS", "address": "7 RUE HENRI BARBOUX", "name": "JOURDAN BARBOUX", "latitude": 48.82195530645611, "zip_code": "75014", "number": 14120, "longitude": 2.326806869905884}, {"city": "PARIS", "address": "34 RUE CONDORCET", "name": "CONDORCET", "latitude": 48.87983122511022, "zip_code": "75009", "number": 9007, "longitude": 2.345396338986368}, {"city": "PARIS", "address": "38 RUE VICTOR MASSE", "name": "VICTOR MASSE", "latitude": 48.881149033952994, "zip_code": "75009", "number": 9019, "longitude": 2.336681004295117}, {"city": "PARIS", "address": "33 BIS RUE SAINT AMAND", "name": "MONCLAR", "latitude": 48.83411714783768, "zip_code": "75015", "number": 15040, "longitude": 2.308850015466539}, {"city": "PARIS", "address": "1 RUE LIARD", "name": "LIART AMIRAL MOUCHEZ", "latitude": 48.82122766331853, "zip_code": "75014", "number": 14013, "longitude": 2.342104214557966}, {"city": "CHARENTON", "address": "RUE NECKER/ RUE DU PORT AUX LIONS", "name": "NECKER (CHARENTON)", "latitude": 48.823963252286866, "zip_code": "94220", "number": 42201, "longitude": 2.399998420132992}, {"city": "PARIS", "address": "44 BD DU TEMPLE", "name": "TEMPLE REPUBLIQUE", "latitude": 48.865745077094815, "zip_code": "75011", "number": 11038, "longitude": 2.365312950780227}, {"city": "PARIS", "address": "2 RUE MONTCALM", "name": "MONTCALM", "latitude": 48.891877957087424, "zip_code": "75018", "number": 18019, "longitude": 2.335447427689794}, {"city": "PARIS", "address": "7 PLACE ARNAUD TZANCK", "name": "PORCHE POUCHET", "latitude": 48.898773792804256, "zip_code": "75017", "number": 17008, "longitude": 2.322478477864687}, {"city": "SOLFERINO, 75007 PARIS", "address": "QUAI ANATOLE FRANCE", "name": "PORT SOLF\u00c3\u2030RINO (STATION MOBILE)", "latitude": 48.86138, "zip_code": "PONT", "number": 901, "longitude": 2.32442}, {"city": "PARIS", "address": "DEV 5 AVENUE EMILE ZOLA", "name": "JAVEL", "latitude": 48.84629491826888, "zip_code": "75015", "number": 15064, "longitude": 2.278413912593796}, {"city": "PARIS", "address": "49 RUE GABRIEL LAME", "name": "LAME", "latitude": 48.835138050689515, "zip_code": "75012", "number": 12031, "longitude": 2.385478486564838}, {"city": "PARIS", "address": "55 RUE BOUSSINGAULT", "name": "BOUSSINGAULT - TOLBIAC", "latitude": 48.82603516605852, "zip_code": "75013", "number": 13021, "longitude": 2.342176808004326}, {"city": "SAINT OUEN", "address": "128 AVENUE GABRIEL PERI / AVENUE DU CAPITAINE GLAMER", "name": "PERI (SAINT OUEN)", "latitude": 48.90259224163092, "zip_code": "93400", "number": 34002, "longitude": 2.330513564840273}, {"city": "PARIS", "address": "46 RUE DE MONTMARTRE", "name": "MONTORGUEIL RUE MONTMARTRE VERSION 2", "latitude": 48.865021945810085, "zip_code": "75002", "number": 2005, "longitude": 2.345068440144759}, {"city": "NEUILLY", "address": "32 RUE DE MADELEINE MICHELIS", "name": "MICHELIS (NEUILLY)", "latitude": 48.8827499154713, "zip_code": "92200", "number": 22012, "longitude": 2.27740638127753}, {"city": "PARIS", "address": "47 RUE BUFFON", "name": "BUFFON", "latitude": 48.841916179825965, "zip_code": "75005", "number": 5104, "longitude": 2.358912681317667}, {"city": "MONTREUIL", "address": "7 BIS RUE DE VINCENNES", "name": "VINCENNES (MONTREUIL)", "latitude": 48.857702134021, "zip_code": "93100", "number": 31008, "longitude": 2.43736866129498}, {"city": "PARIS", "address": "87 RUE DE LA CONVENTION", "name": "BOUCICAUT", "latitude": 48.84214433157821, "zip_code": "75015", "number": 15062, "longitude": 2.285862655943941}, {"city": "PARIS", "address": "2 RUE TIRON", "name": "ECOUFFES RIVOLI", "latitude": 48.85579663740384, "zip_code": "75004", "number": 4012, "longitude": 2.357907882135172}, {"city": "PARIS", "address": "55 RUE TURBIGO", "name": "TURBIGO", "latitude": 48.86558419108518, "zip_code": "75003", "number": 3011, "longitude": 2.356278447633629}, {"city": "PARIS", "address": "69 RUE SAINT BLAISE", "name": "RUE SAINT BLAISE", "latitude": 48.8569749400317, "zip_code": "75020", "number": 20017, "longitude": 2.408842457406961}, {"city": "PARIS", "address": "195 RUE CHAMPIONNET", "name": "VAUVENARGUES", "latitude": 48.89405725132698, "zip_code": "75018", "number": 18028, "longitude": 2.332199335980013}, {"city": "RUE CORBINEAU, 75012 PARIS", "address": "GARE DE BERCY", "name": "GARE DE BERCY", "latitude": 48.83976, "zip_code": "ANGLE", "number": 12024, "longitude": 2.38241}, {"city": "PARIS", "address": "FACE 140 BOULEVARD RICHARD LENOIR", "name": "REPUBLIQUE FERRY", "latitude": 48.86651607982108, "zip_code": "75011", "number": 11113, "longitude": 2.369322530407524}, {"city": "BOULOGNE-BILLANCOURT", "address": "39 RUE NATIONALE", "name": "NATIONALE (BOULOGNE-BILLANCOURT)", "latitude": 48.827600424128306, "zip_code": "92100", "number": 21015, "longitude": 2.241835191324587}, {"city": "IVRY", "address": "PLACE JEAN FERRAT", "name": "JEAN FERRAT (IVRY)", "latitude": 48.8185, "zip_code": "94200", "number": 42015, "longitude": 2.37427}, {"city": "PARIS", "address": "20 RUE SOMMERARD", "name": "SAINT JACQUES", "latitude": 48.850310432924466, "zip_code": "75005", "number": 5002, "longitude": 2.345015835298588}, {"city": "PARIS", "address": "8 BOULEVARD DE LA VILETTE", "name": "BELLEVILLE", "latitude": 48.87277815648997, "zip_code": "75010", "number": 10040, "longitude": 2.376348394645978}, {"city": "PARIS", "address": "1 RUE BRUANT", "name": "AURIOL CHEVALERET", "latitude": 48.83484845292942, "zip_code": "75013", "number": 13018, "longitude": 2.366826499627087}, {"city": "PARIS", "address": "21 RUE DU DR LERAY ET LANDOUZY", "name": "PLACE HENOCQUE VERSION 2", "latitude": 48.823316172177535, "zip_code": "75013", "number": 13026, "longitude": 2.35433694417225}, {"city": "PARIS", "address": "17 RUE DES FETES", "name": "PLACE DES FETES", "latitude": 48.876468339733144, "zip_code": "75019", "number": 19028, "longitude": 2.392284629788502}, {"city": "PARIS", "address": "12 RUE CITE RIVERIN / ANGLE RUE DU CHATEAU D'EAU", "name": "CITE RIVERIN", "latitude": 48.8707649818776, "zip_code": "75010", "number": 10008, "longitude": 2.35872446227434}, {"city": "PARIS", "address": "10 RUE ANDRE MAZET", "name": "MAZET SAINT ANDRE DES ARTS", "latitude": 48.853751073467855, "zip_code": "75006", "number": 6015, "longitude": 2.339113722899687}, {"city": "VINCENNES", "address": "30 AVENUE DES MINIMES", "name": "MINIMES (VINCENNES)", "latitude": 48.841486856300165, "zip_code": "94300", "number": 43006, "longitude": 2.430793451133684}, {"city": "PARIS", "address": "293 RUE LECOURBE", "name": "CHANDON", "latitude": 48.83797034201205, "zip_code": "75015", "number": 15054, "longitude": 2.287582307043615}, {"city": "PARIS", "address": "PLACE PASDELOUP", "name": "CIRQUE D HIVER", "latitude": 48.862650300140295, "zip_code": "75011", "number": 11043, "longitude": 2.367053490449912}, {"city": "PARIS", "address": "4 RUE DOLOMIEU", "name": "PLACE MONGE", "latitude": 48.84273504298964, "zip_code": "75005", "number": 5024, "longitude": 2.352472437223356}, {"city": "PARIS", "address": "102 RUE DE LA CROIX NIVERT", "name": "LAMBERT", "latitude": 48.84307638694992, "zip_code": "75015", "number": 15036, "longitude": 2.29514141310447}, {"city": "GENTILLY", "address": "FACE 59 RUE BENOIT MALON", "name": "MALON (GENTILLY)", "latitude": 48.81444017962381, "zip_code": "94250", "number": 42504, "longitude": 2.341070654172592}, {"city": "PARIS", "address": "29 RUE DU CHERCHE MIDI", "name": "CHERCHE MIDI", "latitude": 48.85024108719566, "zip_code": "75006", "number": 6107, "longitude": 2.327551549210571}, {"city": "PARIS", "address": "29 RUE PIERRE DEMOURS", "name": "PLACE AIM\u00c3\u2030E MAILLART", "latitude": 48.88141110121936, "zip_code": "75017", "number": 17029, "longitude": 2.29482820074442}, {"city": "PARIS", "address": "23 QUAI PANHARD ET LEVASSOR", "name": "QUAI PANHARD ET LEVASSOR", "latitude": 48.828369893809565, "zip_code": "75013", "number": 13050, "longitude": 2.384440354604646}, {"city": "PARIS", "address": "FACE 27 RUE CLAUZEL", "name": "TOUDOUZE CLAUZEL", "latitude": 48.879505265624786, "zip_code": "75009", "number": 9020, "longitude": 2.337190639271711}, {"city": "PARIS", "address": "112 RUE VERCINGETORIX", "name": "GERGOVIE VERCINGETORIX", "latitude": 48.83425924993043, "zip_code": "75014", "number": 14029, "longitude": 2.313391647113252}, {"city": "PARIS", "address": "39 RUE DE DUNKERQUE", "name": "PLACE DE ROUBAIX", "latitude": 48.88072668576597, "zip_code": "75010", "number": 10029, "longitude": 2.351464333201903}, {"city": "PARIS", "address": "19 RUE GUERANDO", "name": "ROCHECHOUART GERANDO", "latitude": 48.88291108953936, "zip_code": "75009", "number": 9004, "longitude": 2.346319371627125}, {"city": "PARIS", "address": "46 RUE LUCIE SAMPAIX", "name": "RECOLLETS", "latitude": 48.874112916506824, "zip_code": "75010", "number": 10015, "longitude": 2.362498528696257}, {"city": "PARIS", "address": "FACE 1 RUE DE VAUGIRARD", "name": "VAUGIRARD PRINCE", "latitude": 48.84892295818577, "zip_code": "75006", "number": 6029, "longitude": 2.341040508705961}, {"city": "PARIS", "address": "GARE DE LYON", "name": "GARE DE LYON", "latitude": 48.8455150897939, "zip_code": "75012", "number": 12151, "longitude": 2.3726498446286}, {"city": "PARIS", "address": "58 RUE DE LA GARE DE REUILLY", "name": "GARE DE REUILLY", "latitude": 48.842577100515385, "zip_code": "75012", "number": 12019, "longitude": 2.397249990597384}, {"city": "PARIS", "address": "FACE 5 AVENUE DE LA PORTE D'IVRY", "name": "PLACE DU DOCTEUR YERSIN", "latitude": 48.820226792619714, "zip_code": "75013", "number": 13116, "longitude": 2.372209309645734}, {"city": "PARIS", "address": "31 RUE MANIN", "name": "MANIN SECRETAN", "latitude": 48.87927519569598, "zip_code": "75019", "number": 19114, "longitude": 2.378637021920256}, {"city": "PARIS", "address": "39 RUE DE MIROMESNIL", "name": "MIROMESNIL", "latitude": 48.873760472140056, "zip_code": "75008", "number": 8025, "longitude": 2.315876308346374}, {"city": "PARIS", "address": "31 RUE FRODEVAUX", "name": "DAGUERRE GASSENDI", "latitude": 48.83568044417256, "zip_code": "75014", "number": 14033, "longitude": 2.328290822051698}, {"city": "NEUILLY", "address": "7 RUE MONTROSIER", "name": "MONTROSIER (NEUILLY)", "latitude": 48.87944136963256, "zip_code": "92200", "number": 22011, "longitude": 2.278535717122779}, {"city": "PARIS", "address": "1 PLACE EDOUARD RENARD", "name": "PORTE DOREE", "latitude": 48.835545043575955, "zip_code": "75012", "number": 12032, "longitude": 2.40745551592605}, {"city": "PARIS", "address": "4-6 RUE OCTAVE FEUILLET", "name": "OCTAVE FEUILLET", "latitude": 48.8609983661382, "zip_code": "75016", "number": 16110, "longitude": 2.27312852713658}, {"city": "PARIS", "address": "4 PLACE DE BARCELONE", "name": "MIRABEAU", "latitude": 48.84766571002937, "zip_code": "75016", "number": 16030, "longitude": 2.273556264965371}, {"city": "PARIS", "address": "2 AVENUE ERNEST RENAN", "name": "PORTE DE VERSAILLES", "latitude": 48.83217944426036, "zip_code": "75015", "number": 15049, "longitude": 2.287122261982559}, {"city": "PARIS", "address": "61 RUE HENRY FARMAN", "name": "FARMAN", "latitude": 48.83373383017729, "zip_code": "75015", "number": 15042, "longitude": 2.271396472461431}, {"city": "PARIS", "address": "5 RUE LALLY TOLLENDAL", "name": "LALLY TOLLENDAL", "latitude": 48.88270064422199, "zip_code": "75019", "number": 19012, "longitude": 2.37469338894231}, {"city": "BOULOGNE-BILLANCOURT", "address": "FACE AU 13 RUE DE LA SEINE", "name": "SEINE (BOULOGNE-BILLANCOURT)", "latitude": 48.82824349415854, "zip_code": "92100", "number": 21018, "longitude": 2.250657739639016}, {"city": "PARIS", "address": "250 RUE LECOURBE", "name": "LECOURBE", "latitude": 48.83922209776229, "zip_code": "75015", "number": 15053, "longitude": 2.291540507948998}, {"city": "PARIS", "address": "102 RUE DAMREMONT", "name": "DAMREMONT ORDENER", "latitude": 48.893400392981874, "zip_code": "75018", "number": 18027, "longitude": 2.336266523912805}, {"city": "PARIS", "address": "16 RUE DE MEZIERES", "name": "MEZIERES RENNES", "latitude": 48.850297010217595, "zip_code": "75006", "number": 6103, "longitude": 2.330446820277252}, {"city": "IVRY", "address": "23 RUE PIERRE BROSSOLETTE", "name": "BROSSOLETTE (IVRY)", "latitude": 48.816929720561234, "zip_code": "94200", "number": 42006, "longitude": 2.381460319184223}, {"city": "PARIS", "address": "4 RUE FRAGONARD", "name": "PORTE DE CLICHY FRAGONARD", "latitude": 48.894151383293696, "zip_code": "75017", "number": 17011, "longitude": 2.314678001115381}, {"city": "PARIS", "address": "2 RUE DANTON", "name": "SAINT MICHEL DANTON", "latitude": 48.85293041059132, "zip_code": "75006", "number": 6020, "longitude": 2.342657392891206}, {"city": "PARIS", "address": "FACE 77 BOULEVARD DE CHARONNE", "name": "ALEXANDRE DUMAS", "latitude": 48.854176040414856, "zip_code": "75011", "number": 11017, "longitude": 2.396093495321842}, {"city": "PARIS", "address": "18 RUE CASSINI", "name": "DENFERT-ROCHEREAU CASSINI", "latitude": 48.837549292197465, "zip_code": "75014", "number": 14111, "longitude": 2.335983030466524}, {"city": "PARIS", "address": "81 BIS RUE JP TIMBAUD", "name": "METALLOS", "latitude": 48.86793796309799, "zip_code": "75011", "number": 11032, "longitude": 2.377885515684799}, {"city": "CLICHY", "address": "2 RUE PETIT", "name": "PETIT (CLICHY)", "latitude": 48.8993483537726, "zip_code": "92110", "number": 21113, "longitude": 2.29662648341284}, {"city": "PARIS", "address": "FACE 104 BOULEVARD RICHARD LENOIR", "name": "RICHARD LENOIR VOLTAIRE NORD", "latitude": 48.86343198963591, "zip_code": "75011", "number": 11044, "longitude": 2.37120861796012}, {"city": "PARIS", "address": "69 BOULEVARD BEAUMARCHAIS", "name": "CHEMIN VERT BEAUMARCHAIS", "latitude": 48.85804405694242, "zip_code": "75003", "number": 3001, "longitude": 2.367832659296124}, {"city": "PARIS", "address": "2 RUE DES RASSELINS", "name": "RASSELINS", "latitude": 48.85352868594103, "zip_code": "75020", "number": 20133, "longitude": 2.409615362775532}, {"city": "PARIS", "address": "1 AVENUE BOUTROUX", "name": "BOUTROUX VITRY", "latitude": 48.822632842232245, "zip_code": "75013", "number": 13047, "longitude": 2.377738433657617}, {"city": "SAINT OUEN", "address": "RUE DORA MAAR / GARE RER", "name": "MAAR (SAINT OUEN)", "latitude": 48.905269629379745, "zip_code": "93400", "number": 34009, "longitude": 2.322171248688672}, {"city": "PARIS", "address": "2 BOULEVARD RICHARD LENOIR", "name": "BASTILLE RICHARD LENOIR", "latitude": 48.85384822621097, "zip_code": "75011", "number": 11001, "longitude": 2.369701488217501}, {"city": "PARIS", "address": "67 RUE DES ARCHIVES", "name": "ARCHIVES PASTOURELLE", "latitude": 48.86240121191442, "zip_code": "75003", "number": 3007, "longitude": 2.359447031946381}, {"city": "PARIS", "address": "26 RUE MONTHOLON", "name": "SQUARE MONTHOLON", "latitude": 48.87660117136262, "zip_code": "75009", "number": 9009, "longitude": 2.345785516803243}, {"city": "75007 PARIS", "address": "QUAI D'ORSAY", "name": "CONCORDE/BERGES DE SEINE (STATION MOBILE)", "latitude": 48.86314, "zip_code": "CONCORDE,", "number": 905, "longitude": 2.31669}, {"city": "PARIS", "address": "25-31 BOULEVARD DE VAUGIRARD", "name": "VAUGIRARD", "latitude": 48.841325259808, "zip_code": "75015", "number": 15115, "longitude": 2.31829155159271}, {"city": "PARIS", "address": "20 RUE MONGE", "name": "MUTUALITE", "latitude": 48.84838576471672, "zip_code": "75005", "number": 5018, "longitude": 2.350169939020645}, {"city": "PANTIN", "address": "FACE AU 23 RUE DELIZY", "name": "DELIZY (PANTIN)", "latitude": 48.89633193166097, "zip_code": "93500", "number": 35006, "longitude": 2.409087652725976}, {"city": "PARIS", "address": "4 RUE D'ATHENES", "name": "ATHENES CLICHY", "latitude": 48.878113787876, "zip_code": "75009", "number": 9036, "longitude": 2.32956021945824}, {"city": "PARIS", "address": "27 BOULEVARD BEAUMARCHAIS", "name": "BEAUMARCHAIS", "latitude": 48.855501357701705, "zip_code": "75004", "number": 4107, "longitude": 2.368429069929045}, {"city": "PARIS", "address": "1 RUE DES BATIGNOLLES", "name": "BATIGNOLLES", "latitude": 48.88310390458221, "zip_code": "75017", "number": 17050, "longitude": 2.323834749088381}, {"city": "PARIS", "address": "13 RUE ERASME", "name": "ULM ERASME", "latitude": 48.8425479496716, "zip_code": "75005", "number": 5013, "longitude": 2.344596649931604}, {"city": "PARIS", "address": "FACE 241 AVENUE GAMBETTA", "name": "PORTE DES LILAS", "latitude": 48.87541242186098, "zip_code": "75020", "number": 20110, "longitude": 2.4059603311549}, {"city": "PARIS", "address": "51 BOULEVARD PORT ROYAL", "name": "PORT ROYAL", "latitude": 48.83772792097816, "zip_code": "75013", "number": 13001, "longitude": 2.344664043426302}, {"city": "PARIS", "address": "89 BOULEVARD DE L'HOPITAL", "name": "SAINT MARCEL", "latitude": 48.83772768745433, "zip_code": "75013", "number": 13103, "longitude": 2.360460336476805}, {"city": "PARIS", "address": "4 RUE DE THANN", "name": "MONCEAU", "latitude": 48.881161983577115, "zip_code": "75017", "number": 17018, "longitude": 2.30951238050775}, {"city": "BAGNOLET", "address": "FACE AU 1 RUE JEANNE HORNET", "name": "HORNET (BAGNOLET)", "latitude": 48.873929200033544, "zip_code": "93170", "number": 31704, "longitude": 2.427933579778934}, {"city": "PARIS", "address": "1 RUE DES ARCHIVES", "name": "HOTEL DE VILLE", "latitude": 48.857203787697095, "zip_code": "75004", "number": 4103, "longitude": 2.353976273618783}, {"city": "BOULOGNE-BILLANCOURT", "address": "4 AVENUE PIERRE GRENIER", "name": "GRENIER (BOULOGNE-BILLANCOURT)", "latitude": 48.82584693469992, "zip_code": "92100", "number": 21013, "longitude": 2.248821391087721}, {"city": "PARIS", "address": "93 RUE DE MONTREUIL", "name": "MONTREUIL VOLTAIRE", "latitude": 48.85050701184191, "zip_code": "75011", "number": 11012, "longitude": 2.393075558274471}, {"city": "AUBERVILLIERS", "address": "FACE 2 RUE DU LANDY", "name": "LANDY (AUBERVILLIERS)", "latitude": 48.915156182813234, "zip_code": "93300", "number": 33012, "longitude": 2.376424009514086}, {"city": "PANTIN", "address": "168 AVENUE JEAN JAURES", "name": "JAURES 1 (PANTIN)", "latitude": 48.91013709505388, "zip_code": "93500", "number": 35001, "longitude": 2.399325633305226}, {"city": "VANVES", "address": "5-7 AVENUE MARCEL MARTINIE", "name": "MARTINIE (VANVES)", "latitude": 48.821049923459526, "zip_code": "92170", "number": 21703, "longitude": 2.29130063072414}, {"city": "PARIS", "address": "14 RUE BACHAUMONT", "name": "BACHAUMONT", "latitude": 48.866067150086806, "zip_code": "75002", "number": 2101, "longitude": 2.345463652702569}, {"city": "PARIS", "address": "2 RUE DE CHAZELLES", "name": "COURCELLES", "latitude": 48.8794303755264, "zip_code": "75017", "number": 17025, "longitude": 2.303467406687128}, {"city": "PARIS", "address": "FACE 28 BOULEVARD RASPAIL", "name": "RASPAIL VARENNE", "latitude": 48.853261668611665, "zip_code": "75007", "number": 7004, "longitude": 2.326319806384382}, {"city": "PARIS", "address": "55 RUE DES CENDRIERS", "name": "AMANDIERS", "latitude": 48.86629510600211, "zip_code": "75020", "number": 20032, "longitude": 2.389350412433471}, {"city": "PARIS", "address": "24 RUE D'AUVERGNE", "name": "TOUR D'AUVERGNE", "latitude": 48.87916177777549, "zip_code": "75009", "number": 9008, "longitude": 2.34369843072095}, {"city": "VINCENNES", "address": "4 AVENUE VORGES", "name": "VORGES (VINCENNES)", "latitude": 48.848257752729346, "zip_code": "94300", "number": 43007, "longitude": 2.439892899386235}, {"city": "PARIS", "address": "15 RUE VAN GOGH", "name": "GARE DE LYON VAN GOGH", "latitude": 48.84419240789483, "zip_code": "75012", "number": 12006, "longitude": 2.371691677977748}, {"city": "MONTROUGE", "address": "FACE 44 RUE D'ESTIENNES D'ORVES / PISCINE", "name": "D'ORVES (MONTROUGE)", "latitude": 48.815388220397274, "zip_code": "92120", "number": 21204, "longitude": 2.320886790760933}, {"city": "PARIS", "address": "61 AVENUE RENE COTY", "name": "REILLE MONTSOURIS", "latitude": 48.82476710259696, "zip_code": "75014", "number": 14016, "longitude": 2.335999677300567}, {"city": "MONTREUIL", "address": "38 RUE DE LA REPUBLIQUE", "name": "REPUBLIQUE (MONTREUIL)", "latitude": 48.85281419134583, "zip_code": "93100", "number": 31002, "longitude": 2.419307088753658}, {"city": "PARIS", "address": "88 RUE BALARD", "name": "BLANC", "latitude": 48.83863387153602, "zip_code": "75015", "number": 15070, "longitude": 2.278274193061826}, {"city": "PARIS", "address": "172 RUE DE COURCELLES", "name": "COURCELLES - DEMOURES", "latitude": 48.883769733273496, "zip_code": "75017", "number": 17047, "longitude": 2.29858466343129}, {"city": "PARIS", "address": "13 RUE CARPEAUX", "name": "CARPEAUX", "latitude": 48.890747210171405, "zip_code": "75018", "number": 18018, "longitude": 2.330820396477741}, {"city": "PARIS", "address": "29 RUE DES BLANCS MANTEAUX", "name": "ARCHIVES BLANCS MANTEAUX", "latitude": 48.85940271964358, "zip_code": "75004", "number": 4014, "longitude": 2.35592748653501}, {"city": "PARIS", "address": "84 RUE DE LA FEDERATION", "name": "SUFFREN F\u00c3\u2030D\u00c3\u2030RATION", "latitude": 48.85276674352813, "zip_code": "75015", "number": 15105, "longitude": 2.297876431467921}, {"city": "PARIS", "address": "2 RUE DU BUISSON SAINT LOUIS", "name": "BUISSON SAINT LOUIS", "latitude": 48.87182588992616, "zip_code": "75010", "number": 10024, "longitude": 2.372203224856393}, {"city": "SAINT DENIS", "address": "EMGP PARKING ENTREE NORD", "name": "EMGP NORD (SAINT DENIS)", "latitude": 48.905745467654526, "zip_code": "93200", "number": 32008, "longitude": 2.364997877155126}, {"city": "PARIS", "address": "10 AVENUE BERTHIER ALBRECHT", "name": "HOCHE ALBRECHT", "latitude": 48.87614039826388, "zip_code": "75008", "number": 8054, "longitude": 2.301303138307601}, {"city": "PARIS", "address": "FACE 119 RUE DE LILLE", "name": "ASSEMBLEE NATIONALE", "latitude": 48.86137389094257, "zip_code": "75007", "number": 7009, "longitude": 2.320131276903925}, {"city": "PARIS", "address": "2 PLACE ANDRE MALRAUX", "name": "PLACE ANDRE MALRAUX", "latitude": 48.86397965515107, "zip_code": "75001", "number": 1015, "longitude": 2.335599603893845}, {"city": "PARIS", "address": "4 RUE DE LA CONDAMINE", "name": "LA FOURCHE RUE DE LA CONDAMINE", "latitude": 48.88790134553051, "zip_code": "75017", "number": 17002, "longitude": 2.324400445437174}, {"city": "PARIS", "address": "1 RUE JOSEPH DIJON", "name": "SIMPLON", "latitude": 48.89373427753593, "zip_code": "75018", "number": 18030, "longitude": 2.347517966604574}, {"city": "LES LILAS", "address": "1 ALLEE DES HORTENSIAS", "name": "HORTENSIAS (LES LILAS)", "latitude": 48.88217309420464, "zip_code": "93260", "number": 32605, "longitude": 2.42327263606036}, {"city": "PARIS", "address": "FACE 1 RUE JEAN COLLY", "name": "TOLBIAC ALBERT", "latitude": 48.82783803264948, "zip_code": "75013", "number": 13045, "longitude": 2.370530563855483}, {"city": "PARIS", "address": "49 RUE DE BERRI", "name": "HAUSSMANN COURCELLES", "latitude": 48.874810390028195, "zip_code": "75008", "number": 8034, "longitude": 2.308314064189137}, {"city": "PARIS", "address": "10 RUE DE CHOISEUL", "name": "QUATRE SEPTEMBRE", "latitude": 48.869969733968915, "zip_code": "75002", "number": 2012, "longitude": 2.3360394555421}, {"city": "PARIS", "address": "FACE 41 AVENUE GEORGES BERNANOS", "name": "PORT ROYAL", "latitude": 48.8401089566606, "zip_code": "75005", "number": 5029, "longitude": 2.337296889737942}, {"city": "PARIS", "address": "73 RUE DES PYRENEES", "name": "MARAICHERS", "latitude": 48.853246898211985, "zip_code": "75020", "number": 20008, "longitude": 2.405871044529538}, {"city": "PARIS", "address": "26 RUE SAINT FERDINAND", "name": "PLACE SAINT FERDINAND", "latitude": 48.87815529789739, "zip_code": "75017", "number": 17039, "longitude": 2.288518047864942}, {"city": "PARIS", "address": "41 AVENUE FELIX FAURE", "name": "BOUCICAUT FAURE", "latitude": 48.841249336041045, "zip_code": "75015", "number": 15069, "longitude": 2.288386600849503}, {"city": "PARIS", "address": "22 AVENUE DES GOBELINS", "name": "GOBELINS", "latitude": 48.83712603861059, "zip_code": "75005", "number": 5027, "longitude": 2.351433329767636}, {"city": "PARIS", "address": "82 AVENUE SAINT MANDE", "name": "ST MANDE NETTER", "latitude": 48.84463462629767, "zip_code": "75012", "number": 12017, "longitude": 2.405099826323643}, {"city": "PANTIN", "address": "ANGLE RUE GENERAL GOSSERAND ET AVENUE EDOUARD VAILLANT", "name": "VAILLANT (PANTIN)", "latitude": 48.902691617981425, "zip_code": "93500", "number": 35003, "longitude": 2.393255829334146}, {"city": "PARIS", "address": "53 RUE DES HAIES", "name": "HAIES REUNION", "latitude": 48.85386896766491, "zip_code": "75020", "number": 20116, "longitude": 2.402426162238911}, {"city": "PARIS", "address": "85 RUE PAJOL", "name": "HERBERT", "latitude": 48.89284571116732, "zip_code": "75018", "number": 18011, "longitude": 2.363429016279767}, {"city": "PARIS", "address": "2 RUE DES CORDELIERES", "name": "ARAGO CORDELIERE - VERSION 2", "latitude": 48.83548071896613, "zip_code": "75013", "number": 13005, "longitude": 2.348572461702221}, {"city": "", "address": "N\u00c2\u00b0 12-14 RUE CLAUDE VELLEFAUX- 75010 PARIS", "name": "DODU", "latitude": 48.87285913900304, "zip_code": "", "number": 10032, "longitude": 2.370071706985146}, {"city": "PARIS", "address": "202 RUE LECOURBE", "name": "GROULT", "latitude": 48.84041618840877, "zip_code": "75015", "number": 15037, "longitude": 2.295464906515111}, {"city": "CLICHY", "address": "2-4 RUE MORICE", "name": "MORICE 2 (CLICHY)", "latitude": 48.90066034942664, "zip_code": "92110", "number": 21106, "longitude": 2.308569535028556}, {"city": "PARIS", "address": "87 BD COURCELLES", "name": "TERNES COURCELLES", "latitude": 48.87818887641853, "zip_code": "75008", "number": 8055, "longitude": 2.299296003861458}, {"city": "PARIS", "address": "PLACE LOUIS LEPINE", "name": "MARCHE AUX FLEURS", "latitude": 48.85525336084426, "zip_code": "75004", "number": 4002, "longitude": 2.347356447642631}, {"city": "PARIS", "address": "66 RUE EMERIAU", "name": "LINOIS", "latitude": 48.84804578628324, "zip_code": "75015", "number": 15030, "longitude": 2.284380633700994}, {"city": "PARIS", "address": "1 RUE DE BELFORT", "name": "CHARONNE", "latitude": 48.85631717803066, "zip_code": "75011", "number": 11020, "longitude": 2.383072452374457}, {"city": "PARIS", "address": "RUE BALARD", "name": "CITROEN", "latitude": 48.84071436444365, "zip_code": "75015", "number": 15059, "longitude": 2.278018571567725}, {"city": "PARIS", "address": "39 AVENUE GEORGE V", "name": "PLACE DUNANT", "latitude": 48.87040913507474, "zip_code": "75008", "number": 8549, "longitude": 2.301123191744092}, {"city": "SURESNES", "address": "RUE DE SAINT CLOUD / BOULEVARD HENRI SELLIER", "name": "SELLIER (SURESNES)", "latitude": 48.867565806130166, "zip_code": "92150", "number": 21501, "longitude": 2.225998484960623}, {"city": "PARIS", "address": "6 RUE SARRETTE", "name": "ALESIA SARRETTE", "latitude": 48.827525292006904, "zip_code": "75014", "number": 14011, "longitude": 2.331729378994153}, {"city": "PARIS", "address": "24 RUE DE MARIGNAN", "name": "MARIGNAN", "latitude": 48.8696161948985, "zip_code": "75008", "number": 8013, "longitude": 2.306620834902348}, {"city": "VINCENNES", "address": "168 AVENUE DE PARIS", "name": "PARIS 1 (VINCENNES)", "latitude": 48.84633805388875, "zip_code": "94300", "number": 43001, "longitude": 2.420247340474637}, {"city": "SAINT MAURICE", "address": "PLACE MONTGOLFIER", "name": "PLACE MONGOLFIER (SAINT MAURICE)", "latitude": 48.815050006197445, "zip_code": "94410", "number": 44101, "longitude": 2.459239414806482}, {"city": "PARIS", "address": "2 RUE DE TURBIGO", "name": "ETIENNE MARCEL", "latitude": 48.86356704711952, "zip_code": "75001", "number": 1007, "longitude": 2.347702021141098}, {"city": "PARIS", "address": "56 RUE FRANCOIS 1ER", "name": "FRANCOIS 1ER LINCOLN", "latitude": 48.86951797934417, "zip_code": "75008", "number": 8105, "longitude": 2.302426218841562}, {"city": "PARIS", "address": "120 BOULEVARD MURAT", "name": "PORTE DE SAINT CLOUD", "latitude": 48.837555260014625, "zip_code": "75016", "number": 16042, "longitude": 2.257972572706903}, {"city": "PARIS", "address": "57 RUE MARCADET", "name": "BARBES MARCADET", "latitude": 48.89045112096476, "zip_code": "75018", "number": 18022, "longitude": 2.349057392968696}, {"city": "CLICHY", "address": "4 RUE DE VALITON", "name": "VALITON (CLICHY)", "latitude": 48.90249245151852, "zip_code": "92110", "number": 21101, "longitude": 2.297840007374352}, {"city": "PARIS", "address": "34 RUE DAREAU", "name": "DAREAU", "latitude": 48.830723214583635, "zip_code": "75014", "number": 14125, "longitude": 2.336146557204349}, {"city": "PARIS", "address": "AVENUE MAURICE D'OCAGNE", "name": "CIT\u00c3\u2030 UNIVERSITAIRE", "latitude": 48.823923168544646, "zip_code": "75014", "number": 14115, "longitude": 2.316573329316086}, {"city": "PARIS", "address": "130 RUE LEGENDRE", "name": "LEGENDRE AVENUE DE CLICHY", "latitude": 48.88896161855884, "zip_code": "75017", "number": 17004, "longitude": 2.322528975094376}, {"city": "PARIS", "address": "FACE 57 RUE NAVIER", "name": "NAVIER", "latitude": 48.89591411750011, "zip_code": "75017", "number": 17007, "longitude": 2.322727367054828}, {"city": "PARIS", "address": "6 BOULEVARD DE REIMS", "name": "REIMS", "latitude": 48.891834448210986, "zip_code": "75017", "number": 17116, "longitude": 2.300144659954865}, {"city": "PARIS", "address": "115 rue de provence", "name": "AUMARTIN PROVENCE", "latitude": 48.874179024030234, "zip_code": "75009", "number": 9104, "longitude": 2.327778690118609}, {"city": "PARIS", "address": "1 RUE JOSEPH SANSBOEUF", "name": "ROME SAINT LAZARE", "latitude": 48.875353174464706, "zip_code": "75008", "number": 8008, "longitude": 2.322884365751902}, {"city": "PARIS", "address": "36 RUE DE SEVIGNE", "name": "RUE DE SEVIGNE", "latitude": 48.856954148055344, "zip_code": "75003", "number": 3013, "longitude": 2.362897420229539}, {"city": "PARIS", "address": "30 RUE BOBILLOT", "name": "BOBILLOT VERLAINE", "latitude": 48.82860289084512, "zip_code": "75013", "number": 13023, "longitude": 2.353034582951421}, {"city": "VINCENNES", "address": "12 RUE DE FONTENAY", "name": "FONTENAY (VINCENNES)", "latitude": 48.84779066448261, "zip_code": "94300", "number": 43008, "longitude": 2.444690887827985}, {"city": "PARIS", "address": "114 BIS RUE DES PYRENEES", "name": "PYRENEES VITRUVE", "latitude": 48.85712940035504, "zip_code": "75020", "number": 20016, "longitude": 2.404425625176959}, {"city": "PARIS", "address": "8 RUE TARDIEU", "name": "TARDIEU", "latitude": 48.88416326647457, "zip_code": "75018", "number": 18005, "longitude": 2.341879802310627}, {"city": "PARIS", "address": "FACE 58 AVENUE MARC SANGNIER", "name": "STADE DIDOT", "latitude": 48.825325870060475, "zip_code": "75014", "number": 14106, "longitude": 2.310670653467625}, {"city": "PARIS", "address": "1 RUE EVARISTE GALOIS", "name": "NOISY LE SEC", "latitude": 48.873338225236466, "zip_code": "75020", "number": 20120, "longitude": 2.413239879550039}, {"city": "PARIS", "address": "42 BOULEVARD VICTOR", "name": " PALAIS DES SPORTS", "latitude": 48.8335736182304, "zip_code": "75015", "number": 15107, "longitude": 2.28548042091786}, {"city": "PARIS", "address": "DEV 1 RUE DES VOLONTAIRES", "name": "LECOURBE VOLONTAIRE", "latitude": 48.843542735006295, "zip_code": "75015", "number": 15013, "longitude": 2.306558615574665}, {"city": "LE PRE SAINT GERVAIS", "address": "RUE ANDRE JOINEAU / PLACE ANATOLE FRANCE", "name": "JOINEAU (PRE SAINT GERVAIS)", "latitude": 48.883620233843736, "zip_code": "93310", "number": 33104, "longitude": 2.403240318366616}, {"city": "PARIS", "address": "6 RUE SAINT PAUL", "name": "VILLAGE SAINT PAUL", "latitude": 48.852725972189546, "zip_code": "75004", "number": 4009, "longitude": 2.360878343431665}, {"city": "PARIS", "address": "76 RUE D'AUTEUIL", "name": "PORTE D'AUTEUIL", "latitude": 48.84795020779427, "zip_code": "75016", "number": 16034, "longitude": 2.260659826137633}, {"city": "PARIS", "address": "62 RUE SAINT LAZARE", "name": "TRINITE", "latitude": 48.87685932729332, "zip_code": "75009", "number": 9029, "longitude": 2.332762380011633}, {"city": "PARIS", "address": "27 ET 36 RUE DE LA BUTTE AUX CAILLES", "name": "BUTTE AUX CAILLES", "latitude": 48.827564379878744, "zip_code": "75013", "number": 13022, "longitude": 2.34906350669476}, {"city": "", "address": "2 RUE HARPIGNIES- 75020 PARIS", "name": "HARPIGNIES", "latitude": 48.85862166935013, "zip_code": "", "number": 20018, "longitude": 2.409942553877677}, {"city": "au 2, rue d'Amsterdam, 75008 PARIS", "address": "Cour du Havre", "name": "GARE SAINT LAZARE - COUR DU HAVRE", "latitude": 48.87572, "zip_code": "Face", "number": 8002, "longitude": 2.32668}, {"city": "PARIS", "address": "28 AVENUE GEORGE V", "name": "GEORGE V", "latitude": 48.868165940558264, "zip_code": "75008", "number": 8047, "longitude": 2.301274609316824}, {"city": "AUBERVILLIERS", "address": "120 BOULEVARD FELIX FAURE", "name": "FELIX (AUBERVILLIERS)", "latitude": 48.907885757266726, "zip_code": "93300", "number": 33009, "longitude": 2.378838474064149}, {"city": "PARIS", "address": "1 RUE DU GRAND PRIEURE", "name": "OBERKAMPF", "latitude": 48.8646494198968, "zip_code": "75011", "number": 11042, "longitude": 2.369261438255258}, {"city": "Vanves", "address": "9 AVENUE PASTEUR ANGLE CARREFOUR ALBERT LEGRIS", "name": "PASTEUR (VANVES)", "latitude": 48.82509932921558, "zip_code": "92170", "number": 21707, "longitude": 2.292500331456548}, {"city": "PARIS", "address": "FACE AU 37 RUE MORILLONS", "name": "DANTZIG", "latitude": 48.83317977055646, "zip_code": "75015", "number": 15047, "longitude": 2.299282641599619}, {"city": "PARIS", "address": "RUE BRUNESEAU", "name": "IVRY BRUNESEAU", "latitude": 48.824952872870355, "zip_code": "75013", "number": 13121, "longitude": 2.388580678853776}, {"city": "PARIS", "address": "63 BOULEVARD DES INVALIDES", "name": "DUROC", "latitude": 48.84776985682885, "zip_code": "75007", "number": 7001, "longitude": 2.316183886729462}, {"city": "PARIS", "address": "133 RUE DE L'ABBE GROULT", "name": "CHARLES VALLIN", "latitude": 48.836058393856256, "zip_code": "75015", "number": 15039, "longitude": 2.301865968384287}, {"city": "PARIS", "address": "62 AVENUE HOCHE", "name": "HOCHE", "latitude": 48.87494475810723, "zip_code": "75008", "number": 8057, "longitude": 2.29743857720451}, {"city": "PARIS", "address": "5 QUAI MALAQAIS", "name": "INSTITUT", "latitude": 48.85761567856468, "zip_code": "75006", "number": 6001, "longitude": 2.335831353037739}, {"city": "PARIS", "address": "1 RUE DE LA PIERRE LEVEE", "name": "REPUBLIQUE PIERRE LEVEE", "latitude": 48.866331347902545, "zip_code": "75011", "number": 11109, "longitude": 2.371097448471508}, {"city": "PARIS", "address": "FACE 83 RUE DE GERGOVIE", "name": "ALESIA GERGOVIE", "latitude": 48.83088717455243, "zip_code": "75014", "number": 14027, "longitude": 2.318882101207347}, {"city": "PARIS", "address": "26-32 RUE PAUL VALERY", "name": "PAUL VAL\u00c3\u2030RY", "latitude": 48.871361039775586, "zip_code": "75016", "number": 16104, "longitude": 2.288866396041159}, {"city": "PARIS", "address": "31 RUE LEON FROT", "name": "CHARONNE FROT", "latitude": 48.854963800335234, "zip_code": "75011", "number": 11111, "longitude": 2.387217085372007}, {"city": "PARIS", "address": "2 RUE FELIX ZIEM", "name": "FELIZ ZIEM", "latitude": 48.88949630486821, "zip_code": "75018", "number": 18111, "longitude": 2.333393658804396}, {"city": "PARIS", "address": "RUE LE BRIX ET MESNIN", "name": "JOURDAN LE BRIX ET MESNIN", "latitude": 48.82234096593411, "zip_code": "75014", "number": 14108, "longitude": 2.327861653302471}, {"city": "PARIS", "address": "2 AVENUE MESSINE", "name": "MESSINE", "latitude": 48.87545720024482, "zip_code": "75008", "number": 8026, "longitude": 2.315465494584916}, {"city": "PARIS", "address": "19 RUE D'ABBEVILLE", "name": "MAUBEUGE CONDORCET", "latitude": 48.879223370628495, "zip_code": "75009", "number": 9002, "longitude": 2.349147493536092}, {"city": "PARIS", "address": "156 RUE DE CHARONNE", "name": "CHARONNE PHILIPPE AUGUSTE", "latitude": 48.85560316202584, "zip_code": "75011", "number": 11019, "longitude": 2.390546390619984}, {"city": "PARIS", "address": "82 AVENUE SIMON BOLIVAR", "name": "BOLIVAR BURNOUF", "latitude": 48.87712417766737, "zip_code": "75019", "number": 19118, "longitude": 2.374276509236151}, {"city": "PARIS", "address": "40 RUE BOU LANGERS", "name": "CARDINAL LEMOINE", "latitude": 48.84629503172156, "zip_code": "75005", "number": 5022, "longitude": 2.352222921607491}, {"city": "PARIS", "address": "FACE 14 RUE HITTORFF", "name": "HITTORFF", "latitude": 48.87208360886937, "zip_code": "75010", "number": 10009, "longitude": 2.35766368561921}, {"city": "PARIS", "address": "FACE 12 BOULEVARD PICPUS", "name": "BEL AIR", "latitude": 48.839988788911874, "zip_code": "75012", "number": 12038, "longitude": 2.400525668552064}, {"city": "PARIS", "address": "14 RUE BOULARD", "name": "BOULARD DAGUERRE", "latitude": 48.834390797006805, "zip_code": "75014", "number": 14036, "longitude": 2.329303946545288}, {"city": "PARIS", "address": "43 RUE BROCHANT", "name": "BROCHANT", "latitude": 48.89032998912038, "zip_code": "75017", "number": 17005, "longitude": 2.319730559929781}, {"city": "PARIS", "address": "FACE 98 AV. HENRI MARTIN", "name": "HENRI MARTIN", "latitude": 48.863025315388256, "zip_code": "75016", "number": 16019, "longitude": 2.268806550199479}, {"city": "PARIS", "address": "2 IMPASSE DE LA CHAPELLE", "name": "CHAPELLE", "latitude": 48.892656891991216, "zip_code": "75018", "number": 18104, "longitude": 2.359435454901881}, {"city": "PARIS", "address": "17 RUE BOBILLOT", "name": "BOBILLOT MERY", "latitude": 48.82987537265954, "zip_code": "75013", "number": 13106, "longitude": 2.35424653463425}, {"city": "BOULOGNE BILLANCOURT", "address": "15 ROND POINT RHIN DANUBE", "name": "RHIN DANUBE (BOULOGNE BILLANCOURT)", "latitude": 48.84064929857331, "zip_code": "92100", "number": 21007, "longitude": 2.227978774754288}, {"city": "PARIS", "address": "100 QUAI DE JEMMAPES", "name": "BOURSE DU TRAVAIL", "latitude": 48.87346279870817, "zip_code": "75010", "number": 10111, "longitude": 2.364035059250436}, {"city": "PARIS", "address": "53 RUE DE MEAUX", "name": "BOLIVAR", "latitude": 48.881447321103366, "zip_code": "75019", "number": 19022, "longitude": 2.3734047671616}, {"city": "PANTIN", "address": "132 RUE JEAN LOLIVE", "name": "LOLIVE 2 (PANTIN)", "latitude": 48.89271966633131, "zip_code": "93500", "number": 35008, "longitude": 2.412529571472175}, {"city": "PARIS", "address": "27 RUE DE TANGER", "name": "PLACE DU MAROC", "latitude": 48.886233417429835, "zip_code": "75019", "number": 19109, "longitude": 2.368856390499634}, {"city": "PARIS", "address": "45 AVENUE MARCEAU", "name": "MARCEAU", "latitude": 48.868851708234864, "zip_code": "75008", "number": 8048, "longitude": 2.298514048803577}, {"city": "PARIS", "address": "55 RUE DU FAUBOURG MONTMARTRE", "name": "FAUBOURG MONTMARTRE", "latitude": 48.875329723153264, "zip_code": "75009", "number": 9014, "longitude": 2.340772662331439}, {"city": "PARIS", "address": "25 RUE DE ROCHECHOUART", "name": "ROCHECHOUART MAUBEUGE", "latitude": 48.87789001497427, "zip_code": "75009", "number": 9108, "longitude": 2.344785602987212}, {"city": "PARIS", "address": "46 BOULEVARD AUGUSTE BLANQUI", "name": "BLANQUI CORVISART", "latitude": 48.82998371071962, "zip_code": "75013", "number": 13009, "longitude": 2.350403587821832}, {"city": "PARIS", "address": "6 RUE MATHIS", "name": "MATHIS", "latitude": 48.89067812943125, "zip_code": "75019", "number": 19006, "longitude": 2.376142468863619}, {"city": "PARIS", "address": "2 RUE PAUL BODIN", "name": "BODIN AVENUE DE CLICHY", "latitude": 48.89263392143244, "zip_code": "75017", "number": 17009, "longitude": 2.317313258110739}, {"city": "PARIS", "address": "3 RUE ROLAND BARTHES", "name": "BARTHES TROYES", "latitude": 48.84394917584249, "zip_code": "75012", "number": 12106, "longitude": 2.37908134343237}, {"city": "PARIS", "address": "PLACE LEDIT DE NANTES", "name": "LEDIT DE NANTES", "latitude": 48.8887900267753, "zip_code": "75019", "number": 19125, "longitude": 2.378500156138491}, {"city": "LE KREMLIN BICETRE", "address": "93 AVENUE DE FONTAINEBLEAU", "name": "FONTAINEBLEAU (KREMLIN BICETRE)", "latitude": 48.8095823380351, "zip_code": "94270", "number": 42703, "longitude": 2.36268350990116}, {"city": "PARIS", "address": "DEV 32 RUE PASQUIER", "name": "SQUARE LOUIS XVI", "latitude": 48.87320440102894, "zip_code": "75008", "number": 8016, "longitude": 2.323658830743138}, {"city": "PARIS", "address": "26 RUE DUPLEIX", "name": "AMETTE", "latitude": 48.851454182127426, "zip_code": "75015", "number": 15025, "longitude": 2.296710300930856}, {"city": "PARIS", "address": "2 RUE LACEPEDE", "name": "LACEPEDE", "latitude": 48.84367484543761, "zip_code": "75005", "number": 5031, "longitude": 2.354615982683207}, {"city": "PARIS", "address": "90 RUE D'ASSAS", "name": "ASSAS LUXEMBOURG", "latitude": 48.84373446877937, "zip_code": "75006", "number": 6008, "longitude": 2.333428381875887}, {"city": "PARIS", "address": "4 RUE DE VENTADOUR", "name": "OP\u00c3\u2030RA PYRAMIDES", "latitude": 48.866810653323, "zip_code": "75001", "number": 1116, "longitude": 2.334388448251871}, {"city": "PARIS", "address": "5 PLACE VIOLET", "name": "VIOLET", "latitude": 48.84479039026177, "zip_code": "75015", "number": 15033, "longitude": 2.290541560154527}, {"city": "PARIS", "address": "RUE SIGMUND FREUD / PORTE CHAUMONT", "name": "PORTE CHAUMONT", "latitude": 48.88573329985865, "zip_code": "75019", "number": 19035, "longitude": 2.397846415383189}, {"city": "PARIS", "address": "243 RUE DE CRIMEE", "name": "OURCQ CRIMEE", "latitude": 48.894104140316266, "zip_code": "75019", "number": 19001, "longitude": 2.372946088467279}, {"city": "SAINT MANDE", "address": "AVENUE PASTEUR/AVENUE DE PARIS", "name": "PASTEUR (SAINT MANDE)", "latitude": 48.845779219164555, "zip_code": "94160", "number": 41603, "longitude": 2.42377059524055}, {"city": "PARIS", "address": "FACE 112 BOULEVARD DE ROCHECHOUART", "name": "MARTYRS 2", "latitude": 48.88219420395092, "zip_code": "75018", "number": 18041, "longitude": 2.340651849622331}, {"city": "PARIS", "address": "138 RUE DE MENILMONTANT", "name": "SQUARE DE MENILMONTANT", "latitude": 48.87013645868239, "zip_code": "75020", "number": 20119, "longitude": 2.396690612876254}, {"city": "PARIS", "address": "107 COURS DE VINCENNES", "name": "COURS DE VINCENNES BD DAVOUT", "latitude": 48.8473310531154, "zip_code": "75020", "number": 20047, "longitude": 2.4103900081973}, {"city": "PARIS", "address": "FACE 6 BOULEVARD DE GRENELLE", "name": "BIR HAKEIM", "latitude": 48.853844054333514, "zip_code": "75015", "number": 15026, "longitude": 2.289705348222022}, {"city": "PARIS", "address": "20 RUE SAINT FIACRE", "name": "BONNE NOUVELLE SAINT FIACRE", "latitude": 48.87078277953678, "zip_code": "75002", "number": 2022, "longitude": 2.345905811394424}, {"city": "PARIS", "address": "33 RUE DES PYRENEES", "name": "PYR\u00c3\u2030N\u00c3\u2030ES - PLAINE", "latitude": 48.850285280635795, "zip_code": "75020", "number": 20006, "longitude": 2.406296107816583}, {"city": "PARIS", "address": "24 AVENUE DE LA PORTE DE SAINT CLOUD", "name": "STADE FRANCAIS", "latitude": 48.838713363162405, "zip_code": "75016", "number": 16044, "longitude": 2.252191060537607}, {"city": "PARIS", "address": "8 AVENUE CARNOT", "name": "CARNOT", "latitude": 48.87553842110213, "zip_code": "75017", "number": 17033, "longitude": 2.293732100169925}, {"city": "PARIS", "address": "262 RUE DES PYRENEES", "name": "PYRENEES", "latitude": 48.86941289116132, "zip_code": "75020", "number": 20035, "longitude": 2.395039981220676}, {"city": "PARIS", "address": "29 BOULEVARD DE LA CHAPELLE", "name": "CHAPELLE MARX DORMOY", "latitude": 48.88457006316311, "zip_code": "75018", "number": 18040, "longitude": 2.360215572664323}, {"city": "PARIS", "address": "4 RUE DES PETITS HOTELS", "name": "MARCHE ST QUENTIN", "latitude": 48.877356057652264, "zip_code": "75010", "number": 10021, "longitude": 2.354511445637388}, {"city": "PARIS", "address": "5 RUE DES PETITES ECURIES", "name": "PETITES ECURIES", "latitude": 48.872939767837096, "zip_code": "75010", "number": 10006, "longitude": 2.35403448428308}, {"city": "PARIS", "address": "37 RUE DU RUISSEAU", "name": "RUISSEAU ORDENER", "latitude": 48.892895283967825, "zip_code": "75018", "number": 18026, "longitude": 2.340119632436559}, {"city": "PARIS", "address": "53 AVENUE PAUL DOUMER", "name": "PAUL DOUMER / LA TOUR", "latitude": 48.860116109626574, "zip_code": "75016", "number": 16016, "longitude": 2.280840481911055}, {"city": "PARIS", "address": "28BIS AVENUE CORENTIN CARIOU", "name": "CITE DES SCIENCES", "latitude": 48.89654905978759, "zip_code": "75019", "number": 19009, "longitude": 2.384649644021933}, {"city": "PARIS", "address": "36 AVENUE SIMON BOLIVAR", "name": "SIMON BOLIVAR", "latitude": 48.875070404063074, "zip_code": "75019", "number": 19101, "longitude": 2.382591714979966}, {"city": "PARIS", "address": "1 AVENUE DE LA PORTE DE SAINT OUEN", "name": "PORTE DE SAINT OUEN", "latitude": 48.89792240854517, "zip_code": "75017", "number": 17044, "longitude": 2.32851451022192}, {"city": "PARIS", "address": "146 BOULEVARD DIDEROT", "name": "DIDEROT BOURDAN", "latitude": 48.847653880984645, "zip_code": "75012", "number": 12107, "longitude": 2.390238633141864}, {"city": "PARIS", "address": "35 BOULEVARD DES INVALIDES", "name": "SAINT FRANCOIS XAVIER", "latitude": 48.85167822904787, "zip_code": "75007", "number": 7014, "longitude": 2.314633840627834}, {"city": "PARIS", "address": "13 BOULEVARD EDGAR QUINET", "name": "EDGAR QUINET", "latitude": 48.84115621648301, "zip_code": "75014", "number": 14001, "longitude": 2.324448789519074}, {"city": "PARIS", "address": "76 RUE DU TEMPLE", "name": "TEMPLE 113", "latitude": 48.861581157730946, "zip_code": "75003", "number": 3009, "longitude": 2.35660934144383}, {"city": "PARIS", "address": "19 PLACE DE LA REPUBLIQUE", "name": "REPUBLIQUE 23", "latitude": 48.86707, "zip_code": "75003", "number": 3004, "longitude": 2.36351}, {"city": "PARIS", "address": "FACE 1 AVENUE AMBROISE RENDU", "name": "PORTE BRUNET", "latitude": 48.88365921093733, "zip_code": "75019", "number": 19105, "longitude": 2.395719508193907}, {"city": "PARIS", "address": "6 RUE DAMREMONT", "name": "DAMREMONT CAULAINCOURT", "latitude": 48.88727464264267, "zip_code": "75018", "number": 18001, "longitude": 2.332648363845394}, {"city": "PARIS", "address": "54 BOULEVARD MENILMONTANT", "name": "PERE LACHAISE", "latitude": 48.863411107404715, "zip_code": "75020", "number": 20030, "longitude": 2.387133957573714}, {"city": "PARIS", "address": "02 RUE DANIEL CASANOVA", "name": "OPERA CASANOVA", "latitude": 48.867623078056845, "zip_code": "75002", "number": 2020, "longitude": 2.333268593101536}, {"city": "PARIS", "address": "4 RUE BOYER BARRET", "name": "LOSSERAND BOYER-BARRET", "latitude": 48.833139, "zip_code": "75014", "number": 14104, "longitude": 2.317377}, {"city": "PARIS", "address": "3 RUE DE CHARONNE", "name": "CHARONNE SAINT ANTOINE", "latitude": 48.852255290042486, "zip_code": "75011", "number": 11004, "longitude": 2.374027235613735}, {"city": "PARIS", "address": "16 RUE JEAN BOLOGNE", "name": "RUE JEAN BOLOGNE", "latitude": 48.857566889784465, "zip_code": "75016", "number": 16022, "longitude": 2.280027395306772}, {"city": "PARIS", "address": "35, rue de la Gare", "name": "GARE EMGP", "latitude": 48.90162, "zip_code": "75019", "number": 19106, "longitude": 2.37267}, {"city": "PARIS", "address": "FACE 11 PLACE D'ITALIE", "name": "PLACE D ITALIE AURIOL", "latitude": 48.831582643774894, "zip_code": "75013", "number": 13010, "longitude": 2.356708420760657}, {"city": "PARIS", "address": "182 BOULEVARD BERTHIER", "name": "BERTHIER STUART MERRIL", "latitude": 48.88591312825616, "zip_code": "75017", "number": 17107, "longitude": 2.293234151072418}, {"city": "PARIS", "address": "67-69 RUE DE CROULEBARBE", "name": "CROULEBARBE RECULETTES", "latitude": 48.831121775069235, "zip_code": "75013", "number": 13101, "longitude": 2.348108654777346}, {"city": "GENTILLY", "address": "FACE 71 AVENUE LENINE", "name": "LENINE (GENTILLY)", "latitude": 48.81315667771776, "zip_code": "94250", "number": 42503, "longitude": 2.332054794950423}, {"city": "PARIS", "address": "GARE D'AUSTERLITZ", "name": "GARE D'AUSTERLITZ", "latitude": 48.84057730290756, "zip_code": "75013", "number": 13151, "longitude": 2.366124461859616}, {"city": "PARIS", "address": "1 AVENUE FRANKLIN ROOSEVELT", "name": "PLACE DU CANADA", "latitude": 48.865346269362675, "zip_code": "75008", "number": 8029, "longitude": 2.310193787964762}, {"city": "PARIS", "address": "2 RUE LAKANAL", "name": "COMMERCE", "latitude": 48.844425919545365, "zip_code": "75015", "number": 15034, "longitude": 2.29404143328216}, {"city": "PARIS", "address": "4 RUE DES FILLES DU CALVAIRE", "name": "TURENNE BRETAGNE", "latitude": 48.86213223497159, "zip_code": "75003", "number": 3003, "longitude": 2.364951386893752}, {"city": "PARIS", "address": "10 RUE EUGENE OUDINE", "name": "OUDINE PATAY", "latitude": 48.825712903519616, "zip_code": "75013", "number": 13046, "longitude": 2.375044300094851}, {"city": "PARIS", "address": "44 RUE PELLEPORT", "name": "PELLEPORT BELGRAND", "latitude": 48.86500081847653, "zip_code": "75020", "number": 20023, "longitude": 2.403980836377493}, {"city": "PARIS", "address": "FACE 29 RUE JEAN JACQUES ROUSSEAU", "name": "BOURSE DU COMMERCE", "latitude": 48.86299816676784, "zip_code": "75001", "number": 1012, "longitude": 2.341555077827231}, {"city": "PARIS", "address": "RUE DE LA POTERNE DES PEUPLIERS", "name": "CIMETIERE DE GENTILLY", "latitude": 48.818574415839485, "zip_code": "75013", "number": 13111, "longitude": 2.353260183740912}, {"city": "IVRY", "address": "128 AVENUE DANIEL CASANOVA", "name": "CASANOVA (IVRY)", "latitude": 48.81420628475591, "zip_code": "94200", "number": 42008, "longitude": 2.384207013557983}, {"city": "PARIS", "address": "AVENUE DAUMESNIL", "name": "BOIS DE VINCENNES", "latitude": 48.833654852830335, "zip_code": "75012", "number": 12041, "longitude": 2.413463576486826}, {"city": "SAINT OUEN", "address": "FACE 10 RUE FRUCTIDOR / FACE BAT 2 LE COLYSEE", "name": "FRUCTIDOR (SAINT OUEN)", "latitude": 48.900889626876015, "zip_code": "93400", "number": 34001, "longitude": 2.324819807804481}, {"city": "CLICHY", "address": "64 RUE DE MADAME DE SANZILLON", "name": "SANZILLON (CLICHY)", "latitude": 48.903676702256305, "zip_code": "92110", "number": 21104, "longitude": 2.319176657580128}, {"city": "PARIS", "address": "45 RUE DES BOULETS", "name": "RUE DES BOULETS", "latitude": 48.852193095437535, "zip_code": "75011", "number": 11009, "longitude": 2.3890216505832}, {"city": "PARIS", "address": "8 RUE MANIN", "name": "MANIN CRIMEE", "latitude": 48.8830298392804, "zip_code": "75019", "number": 19031, "longitude": 2.38634884002286}, {"city": "LEVALLOIS-PERRET", "address": "47 RUE VOLTAIRE", "name": "VOLTAIRE (LEVALLOIS)", "latitude": 48.891962328964816, "zip_code": "92300", "number": 23010, "longitude": 2.284204990113615}, {"city": "PARIS", "address": "121 AVENUE D'ITALIE", "name": "ITALIE MAISON BLANCHE", "latitude": 48.821159320800966, "zip_code": "75013", "number": 13031, "longitude": 2.358701217878322}, {"city": "PARIS", "address": "01 RUE LALLIER", "name": "TRUDAINE MARTYRS", "latitude": 48.88103214901626, "zip_code": "75009", "number": 9017, "longitude": 2.340774412117837}, {"city": "PARIS", "address": "61 RUE DE BERCY", "name": "PARC DE BERCY", "latitude": 48.83772145898209, "zip_code": "75012", "number": 12026, "longitude": 2.382217337050408}, {"city": "PARIS", "address": "71 BOULEVARD DIDEROT", "name": "REUILLY DIDEROT", "latitude": 48.847296310645035, "zip_code": "75012", "number": 12012, "longitude": 2.385707672217665}, {"city": "PARIS", "address": "3 RUE PASCAL", "name": "MOUFFETARD SAINT MEDARD", "latitude": 48.83899382454321, "zip_code": "75005", "number": 5026, "longitude": 2.34993205295774}, {"city": "PARIS", "address": "12 BD DES FILLES DU CALVAIRE", "name": "SAINT SEBASTIEN FROISSARD", "latitude": 48.861205051934334, "zip_code": "75011", "number": 11045, "longitude": 2.367352328799597}, {"city": "LES LILAS", "address": "7 RUE JEAN POULMARCH", "name": "POULMARCH (LES LILAS)", "latitude": 48.8794000532367, "zip_code": "93260", "number": 32602, "longitude": 2.41616066183218}, {"city": "PARIS", "address": "12 RUE ETIENNE JOGELLE", "name": "FOURCHE", "latitude": 48.88794016394694, "zip_code": "75018", "number": 18046, "longitude": 2.326124420314341}, {"city": "PARIS", "address": "14 RUE DE MARSEILLE", "name": "BEAUREPAIRE", "latitude": 48.8716626619994, "zip_code": "75010", "number": 10014, "longitude": 2.363933311380362}, {"city": "PARIS", "address": "1 AVENUE DE LA PORTE DE LA VILLETTE", "name": "PORTE DE LA VILLETTE", "latitude": 48.89849005307383, "zip_code": "75019", "number": 19115, "longitude": 2.386120008210507}, {"city": "PARIS", "address": "4 PLACE DU CARDINAL LAVIGERIE", "name": "CARDINAL LAVIGERIE", "latitude": 48.832934193699835, "zip_code": "75012", "number": 12113, "longitude": 2.402636749399156}, {"city": "PARIS", "address": "300 RUE DES PYRENEES", "name": "PYRENEES ERMITAGE", "latitude": 48.87215737993568, "zip_code": "75020", "number": 20042, "longitude": 2.391739173776302}, {"city": "PARIS", "address": "QUAI BRANLY", "name": "BOURDONNAIS TOUR EIFFEL", "latitude": 48.860897797941035, "zip_code": "75007", "number": 7023, "longitude": 2.29559959844703}, {"city": "RUE LEPIC, 75018 PARIS", "address": "70", "name": "LEPIC", "latitude": 48.8875730709534, "zip_code": "72", "number": 18113, "longitude": 2.33432733641793}, {"city": "PARIS", "address": "FACE 109 BOULEVARD SERURIER", "name": "SERRURIER", "latitude": 48.8806060535742, "zip_code": "75019", "number": 19027, "longitude": 2.3978962906105}, {"city": "LE PRE SAINT GERVAIS", "address": "RUE GABRIEL PERI ANGLE AVENUE JAURES", "name": "JAURES 1 (PRE SAINT GERVAIS)", "latitude": 48.886526983267544, "zip_code": "93310", "number": 33102, "longitude": 2.407468689386476}, {"city": "PARIS", "address": "53 RUE MIGUEL HIDALGO", "name": "DANUBE", "latitude": 48.88195317244523, "zip_code": "75019", "number": 19026, "longitude": 2.392496216649528}, {"city": "PARIS", "address": "34 BOULEVARD DE REIMS", "name": "PORTE DE COURCELLE", "latitude": 48.88880002064895, "zip_code": "75017", "number": 17028, "longitude": 2.296319931841717}, {"city": "PARIS", "address": "143 BOULEVARD DE PEREIRE", "name": "RENNEQUIN PEREIRE", "latitude": 48.88363915389933, "zip_code": "75017", "number": 17030, "longitude": 2.295152067446227}, {"city": "PARIS", "address": "1 RUE DE LA FIDELITE", "name": "GARE DE L'EST SAINT LAURENT", "latitude": 48.874575036780286, "zip_code": "75010", "number": 10017, "longitude": 2.356796765204903}, {"city": "PARIS", "address": "01 RUE CAUCHY", "name": "SQUARE DES C\u00c3\u2030VENNES", "latitude": 48.84341723238589, "zip_code": "75015", "number": 15103, "longitude": 2.275108332056225}, {"city": "PARIS", "address": "1 RUE DU CDT RIVIERE", "name": "SAINT PHILIPPE DU ROULE", "latitude": 48.872787680846464, "zip_code": "75008", "number": 8033, "longitude": 2.309722588932229}, {"city": "PARIS", "address": "FACE 80 RUE BOTZARIS", "name": "BOTZARIS", "latitude": 48.8795614522371, "zip_code": "75019", "number": 19025, "longitude": 2.38896041078391}, {"city": "PARIS", "address": "1 RUE SAINT BON", "name": "RIVOLI SEBASTOPOL", "latitude": 48.857999643314926, "zip_code": "75004", "number": 4018, "longitude": 2.350217280976349}, {"city": "PARIS", "address": "91 RUE MICHEL ANGE", "name": "MICHEL ANGE", "latitude": 48.840610399663696, "zip_code": "75016", "number": 16118, "longitude": 2.258373658198948}, {"city": "PARIS", "address": "11 RUE THOREL", "name": "THOREL", "latitude": 48.87000061719652, "zip_code": "75002", "number": 2107, "longitude": 2.348995518049354}, {"city": "94270 LE KREMLIN BICETRE", "address": "3 RUE ROGER SALENGRO", "name": "SALENGRO (KREMLIN BICETRE)", "latitude": 48.814662495608864, "zip_code": "", "number": 42706, "longitude": 2.36134550272134}, {"city": "PARIS", "address": "13 RUE DES GATINES", "name": "GAMBETTA GATINES", "latitude": 48.8653941647232, "zip_code": "75020", "number": 20025, "longitude": 2.397814475307571}, {"city": "PUTEAUX", "address": "152 RUE JEAN JAURES", "name": "JAURES (PUTEAUX)", "latitude": 48.88047087219649, "zip_code": "92800", "number": 28003, "longitude": 2.237362446304566}, {"city": "PARIS", "address": "49 RUE DE LA TOMBE D'ISSOIRE", "name": "COTY TOMBE D'ISSOIRE", "latitude": 48.83055599940998, "zip_code": "75014", "number": 14009, "longitude": 2.33378329803361}, {"city": "PARIS", "address": "140 AVENUE PARMENTIER", "name": "GONCOURT", "latitude": 48.86946960532872, "zip_code": "75011", "number": 11035, "longitude": 2.371536810663942}, {"city": "PARIS", "address": "32 RUE CHAMPIONNET", "name": "CHAMPIONNET", "latitude": 48.895470370399146, "zip_code": "75018", "number": 18101, "longitude": 2.349865450921441}, {"city": "PARIS", "address": "7 QUAI DE METZ", "name": "QUAI DE METZ", "latitude": 48.89106, "zip_code": "75019", "number": 19123, "longitude": 2.3865}, {"city": "PARIS", "address": "32 RUE CAMBRONNE", "name": "THEBAUD RUE DE CAMBRONNE", "latitude": 48.845831419610754, "zip_code": "75015", "number": 15011, "longitude": 2.301753086991115}, {"city": "PARIS", "address": "FACE 28 RUE FRANCOIS TRUFFAUT", "name": "SAINT EMILION", "latitude": 48.83350833245743, "zip_code": "75012", "number": 12033, "longitude": 2.386133168700345}, {"city": "PARIS", "address": "2 RUE GODOT DE MAUROY", "name": "GODOT DE MAUROY", "latitude": 48.869956681574806, "zip_code": "75009", "number": 9034, "longitude": 2.326599657113696}, {"city": "PARIS", "address": "90 AVENUE DU MAINE", "name": "MAINE GAITE", "latitude": 48.83788362776244, "zip_code": "75014", "number": 14035, "longitude": 2.322551640018162}, {"city": "BOULOGNE-BILLANCOURT", "address": "FACE AU 1 RUE LECORBUSIER", "name": "LECORBUSIER (BOULOGNE-BILLANCOURT)", "latitude": 48.83799829528177, "zip_code": "92100", "number": 21009, "longitude": 2.240846664821182}, {"city": "PARIS", "address": "22 AVENUE DE LA PORTE D'ASNIERES", "name": "AVENUE DE LA PORTE D'ASNI\u00c3\u02c6RES", "latitude": 48.89058621555025, "zip_code": "75017", "number": 17023, "longitude": 2.303457408685266}, {"city": "PARIS", "address": "44 BOULEVARD DE BELLEVILLE", "name": "COURONNES", "latitude": 48.868940642855314, "zip_code": "75020", "number": 20039, "longitude": 2.381282601102786}, {"city": "PARIS", "address": "4 RUE DES BELLES FEUILLES", "name": "BELLES FEUILLES", "latitude": 48.86585549636314, "zip_code": "75016", "number": 16010, "longitude": 2.282859908979733}, {"city": "PARIS", "address": "2 RUE BALZAC", "name": "WASHINGTON", "latitude": 48.87288299097443, "zip_code": "75008", "number": 8052, "longitude": 2.299972932642669}, {"city": "PARIS", "address": "105 RUE JOUFFROY D'ABBANS", "name": "WAGRAM COURCELLES", "latitude": 48.88185715074461, "zip_code": "75017", "number": 17026, "longitude": 2.301138378176729}, {"city": "LE KREMELIN BICETRE", "address": "73 RUE DU GENERAL LECLERC", "name": "LECLERC (KREMLIN BICETRE)", "latitude": 48.81047749960048, "zip_code": "94270", "number": 42702, "longitude": 2.358172896462481}, {"city": "PARIS", "address": "89 RUE DE L'ABBE CARTON", "name": "ABBE CARTON", "latitude": 48.82774626607583, "zip_code": "75014", "number": 14110, "longitude": 2.320714098089133}, {"city": "PARIS", "address": "3 BOULEVARD DE DENAIN", "name": "GARE DU NORD 2", "latitude": 48.87904931076023, "zip_code": "75010", "number": 10152, "longitude": 2.354159095958248}, {"city": "PARIS", "address": "2 AVENUE DE LA PORTE DE MONTROUGE", "name": "PORTE DE MONTROUGE 2", "latitude": 48.82341630050286, "zip_code": "75014", "number": 14107, "longitude": 2.322936857107952}, {"city": "PARIS", "address": "60 RUE DU THEATRE", "name": "THEATRE", "latitude": 48.84817034136516, "zip_code": "75015", "number": 15031, "longitude": 2.289906646457531}, {"city": "PARIS", "address": "1 RUE DES BOULETS", "name": "ST ANTOINE GONNET", "latitude": 48.84925926211519, "zip_code": "75011", "number": 11010, "longitude": 2.391754614194301}, {"city": "PARIS", "address": "37 AVENUE BOSQUET", "name": "BOSQUET SAINT DOMINIQUE", "latitude": 48.85865170952645, "zip_code": "75007", "number": 7021, "longitude": 2.303716580234576}, {"city": "PARIS", "address": "89 AVENUE RAYMOND POINCARE", "name": "POINCARE VICTOR HUGO", "latitude": 48.870306124369975, "zip_code": "75016", "number": 16005, "longitude": 2.285074541420228}, {"city": "92130 ISSY LES MOULINEAUX", "address": "ANGLE AVENUE JEAN MONNET ET BOULEVARD DES ILES", "name": "ILES (ISSY LES MOULINEAUX)", "latitude": 48.8234505470138, "zip_code": "", "number": 21303, "longitude": 2.249665298288027}, {"city": "PARIS", "address": "13 RUE FRANQUET", "name": "LABROUSTE", "latitude": 48.83285390827691, "zip_code": "75015", "number": 15041, "longitude": 2.306898478208195}, {"city": "PARIS", "address": "18 RUE MARIE ANDREE LAGROUA", "name": "LAGROUA", "latitude": 48.828595283857425, "zip_code": "75013", "number": 13055, "longitude": 2.380220606266108}, {"city": "BOULOGNE BILLANCOURT", "address": "FACE AU 128 RUE DES ENFANTS DU PARADIS", "name": "PARADIS (BOULOGNE-BILLANCOURT)", "latitude": 48.833174958910085, "zip_code": "92100", "number": 21021, "longitude": 2.257005867300889}, {"city": "PARIS", "address": "148 QUAI DE JEMMAPES", "name": "ECLUSES SAINT MARTIN", "latitude": 48.87742034308959, "zip_code": "75010", "number": 10025, "longitude": 2.366011448983217}, {"city": "PARIS", "address": "27 RUE BOYER", "name": "MENILMONTANT BOYER", "latitude": 48.868910127448686, "zip_code": "75020", "number": 20121, "longitude": 2.392020489286297}, {"city": "PARIS", "address": "2 RUE ROUVET", "name": "ROUVET DAMPIERRE", "latitude": 48.8933800500227, "zip_code": "75019", "number": 19011, "longitude": 2.38499975689617}, {"city": "PARIS", "address": "28 AVENUE DE CHOISY", "name": "CHOISY POINT D'IVRY", "latitude": 48.82190796881169, "zip_code": "75013", "number": 13038, "longitude": 2.363334710614756}, {"city": "PARIS", "address": "27 RUE THERESE", "name": "OPERA PYRAMIDES", "latitude": 48.86648351450895, "zip_code": "75001", "number": 1016, "longitude": 2.334433421223788}, {"city": "PARIS", "address": "6 RUE FRANCAISE", "name": "FRANCAISE", "latitude": 48.864065046949904, "zip_code": "75001", "number": 1102, "longitude": 2.347597912716465}, {"city": "PARIS", "address": "4 RUE JEAN DE LA FONTAINE", "name": "FONTAINE RAYNOUARD", "latitude": 48.852786944099584, "zip_code": "75016", "number": 16025, "longitude": 2.275580584185594}, {"city": "PARIS", "address": "1 BIS RUE DE SIAM", "name": "RUE DE SIAM", "latitude": 48.861720329027264, "zip_code": "75016", "number": 16017, "longitude": 2.275346568555312}, {"city": "PARIS", "address": "57 RUE DES FRERES FLAVIEN", "name": "PORTE DES LILAS", "latitude": 48.87809927643587, "zip_code": "75020", "number": 20029, "longitude": 2.411046298532085}, {"city": "TRAM, 92210 SAINT CLOUD", "address": "GARE ROUTIERE", "name": "GARE ROUTIERE ( SAINT CLOUD)", "latitude": 48.843126205966946, "zip_code": "ARRET", "number": 22101, "longitude": 2.222189235680779}, {"city": "PARIS", "address": "41 RUE DU REPOS", "name": "REPOS", "latitude": 48.859358523592554, "zip_code": "75020", "number": 20131, "longitude": 2.389613136684456}, {"city": "PARIS", "address": "7 RUE SAINT DENIS", "name": "RIVOLI SAINT DENIS", "latitude": 48.859150287255645, "zip_code": "75001", "number": 1003, "longitude": 2.347620087684511}, {"city": "PARIS", "address": "RUE GUY MOCQUET", "name": "GUY MOCQUET", "latitude": 48.89282296302349, "zip_code": "75017", "number": 17001, "longitude": 2.326803489834799}, {"city": "PARIS", "address": "10 RUE BOUCHER", "name": "PONT NEUF", "latitude": 48.85946238924527, "zip_code": "75001", "number": 1010, "longitude": 2.344366128446111}, {"city": "PARIS", "address": "3 RUE BROCHANT", "name": "BROCHANT", "latitude": 48.88818698581028, "zip_code": "75017", "number": 17016, "longitude": 2.316861143151153}, {"city": "PARIS", "address": "37 RUE DE LA ROQUETTE", "name": "ROQUETTE THIERE", "latitude": 48.85510629540472, "zip_code": "75011", "number": 11002, "longitude": 2.373424541930557}, {"city": "PARIS", "address": "RUE PIERRE ET JOSEPH DESAULT", "name": "VITRY DESAULT", "latitude": 48.821138751437616, "zip_code": "75013", "number": 13120, "longitude": 2.378718606608679}, {"city": "PARIS", "address": "FACE 4 BD MALESHERBES", "name": "MALESHERBES PASQUIER", "latitude": 48.87042188343355, "zip_code": "75008", "number": 8004, "longitude": 2.323288994791708}, {"city": "PARIS", "address": "30 RUE PIAT", "name": "PARC DE BELLEVILLE", "latitude": 48.87195626635528, "zip_code": "75020", "number": 20113, "longitude": 2.384981390278095}, {"city": "PARIS", "address": "80 RUE DE L'AQUEDUC", "name": "AQUEDUC", "latitude": 48.88384326568884, "zip_code": "75010", "number": 10036, "longitude": 2.367110644031659}, {"city": "CHARENTON", "address": "136 RUE DE PARIS", "name": "PARIS 3 (CHARENTON)", "latitude": 48.8266572063246, "zip_code": "94220", "number": 42207, "longitude": 2.405876723011083}, {"city": "PARIS", "address": "42 ALLEE VIVALDI", "name": "VIVALDI", "latitude": 48.841923663276546, "zip_code": "75012", "number": 12028, "longitude": 2.389728979467376}, {"city": "PARIS", "address": "9 RUE DE DANTE", "name": "ST GERMAIN-DANTE", "latitude": 48.850977229793614, "zip_code": "75005", "number": 5008, "longitude": 2.346076825913541}, {"city": "PARIS", "address": "189 RUE SAINT DENIS", "name": "ALLEE PIERRE LAZAEFF", "latitude": 48.86614574652862, "zip_code": "75002", "number": 2003, "longitude": 2.350844595287827}, {"city": "PARIS", "address": "PLACE DU LIEUTENANT HENRI KARCHER", "name": "COLONEL DRIANT", "latitude": 48.86343050194121, "zip_code": "75001", "number": 1026, "longitude": 2.340169767017624}, {"city": "PARIS", "address": "3 RUE DU JOURDAIN", "name": "JOURDAIN", "latitude": 48.87409248091576, "zip_code": "75020", "number": 20112, "longitude": 2.389435908330615}, {"city": "PARIS", "address": "161 AVENUE MALAKOFF", "name": "MALAKOFF", "latitude": 48.87669268743692, "zip_code": "75016", "number": 16101, "longitude": 2.283457593383419}, {"city": "PARIS", "address": "83 RUE LEGENDRE", "name": "LEGENDRE", "latitude": 48.8877723254283, "zip_code": "75017", "number": 17110, "longitude": 2.32036786584418}, {"city": "PARIS", "address": "26 RUE DU COLONEL PIERRE AVIA", "name": "AVIA", "latitude": 48.8296843300915, "zip_code": "75015", "number": 15120, "longitude": 2.275342586850291}, {"city": "PARIS", "address": "12 BIS RUE DE LA GRANGE AUX BELLES", "name": "HOPITAL SAINT LOUIS", "latitude": 48.874794994841274, "zip_code": "75010", "number": 10114, "longitude": 2.366669436984963}, {"city": "PARIS", "address": "PLACE DE LA PORTE DE CHAMPERET", "name": "PORTE DE CHAMPERET", "latitude": 48.88561741628322, "zip_code": "75017", "number": 17031, "longitude": 2.290781411279206}, {"city": "PARIS", "address": "17 RUE DES BEAUX ARTS", "name": "BONAPARTE BEAUX ARTS", "latitude": 48.8564374096868, "zip_code": "75006", "number": 6021, "longitude": 2.334797622948368}, {"city": "PARIS", "address": "51 RUE DES VIGNES", "name": "BOULAINVILLIERS", "latitude": 48.85615074338874, "zip_code": "75016", "number": 16031, "longitude": 2.275188414671189}, {"city": "PARIS", "address": "3 RUE TRAKTIR", "name": "TRAKTIR", "latitude": 48.87279915599243, "zip_code": "75016", "number": 16103, "longitude": 2.291508179426733}, {"city": "PARIS", "address": "2 RUE BLAISE DESGOFFE", "name": "VAUGIRARD DESGOFFE", "latitude": 48.84612989154848, "zip_code": "75006", "number": 6027, "longitude": 2.324240578144087}, {"city": "PARIS", "address": "25 RUE BAYARD", "name": "MONTAIGNE", "latitude": 48.86729323621449, "zip_code": "75008", "number": 8030, "longitude": 2.307691605650344}, {"city": "PARIS", "address": "17 BOULEVARD DU MORLAND", "name": "MORLAND", "latitude": 48.84996003527753, "zip_code": "75004", "number": 4105, "longitude": 2.363239868721318}, {"city": "PARIS", "address": "63 BOULEVARD DAVOUT / ANGLE 84 RUE VOLGA", "name": "DAVOUT VOLGA", "latitude": 48.852919679957296, "zip_code": "75020", "number": 20044, "longitude": 2.410522909779111}, {"city": "PARIS", "address": "ROUTE DE LA CEINTURE DU LAC DAUMESNIL", "name": "CONSERVATION", "latitude": 48.82772523704757, "zip_code": "75012", "number": 12120, "longitude": 2.41827234236864}, {"city": "PARIS", "address": "2 BOULEVARD FLANDRIN", "name": "FLANDRIN", "latitude": 48.86441140945903, "zip_code": "75016", "number": 16018, "longitude": 2.272448647646471}, {"city": "PARIS", "address": "150 RUE NATIONALE", "name": "NATIONALE BACH", "latitude": 48.830957464145705, "zip_code": "75013", "number": 13042, "longitude": 2.364107053254628}, {"city": "NOGENT SUR MARNE", "address": "FACE AU 60 AVENUE CHARLES DE GAULLES", "name": "CHARLES DE GAULLE (NOGENT)", "latitude": 48.83648112918176, "zip_code": "94130", "number": 41302, "longitude": 2.479464268709081}, {"city": "LEVALLOIS", "address": "109 RUE  PAUL VAILLANT COUTURIER", "name": "COUTURIER 2 (LEVALLOIS)", "latitude": 48.89819702263572, "zip_code": "92300", "number": 23004, "longitude": 2.293848017974069}, {"city": "PARIS", "address": "212 RUE DE CHARENTON", "name": "CHAROLAIS", "latitude": 48.840869459702354, "zip_code": "75012", "number": 12109, "longitude": 2.387564334932072}, {"city": "PARIS", "address": "79 RUE DE LA VICTOIRE", "name": "VICTOIR CHAUSSEE D ANTIN", "latitude": 48.87518586417745, "zip_code": "75009", "number": 9030, "longitude": 2.332036313368639}, {"city": "PARIS", "address": "93 RUE CAULAINCOURT", "name": "PECQUEUR", "latitude": 48.8896779050281, "zip_code": "75018", "number": 18017, "longitude": 2.33817871442611}, {"city": "PARIS", "address": "22-24 RUE DE CHARTRES", "name": "CHARTRES", "latitude": 48.88470686398326, "zip_code": "75018", "number": 18107, "longitude": 2.35358041022707}, {"city": "PARIS", "address": "FACE 4 BOULEVARD PASTEUR", "name": "SEVRES LECOURBE", "latitude": 48.844838019227154, "zip_code": "75015", "number": 15008, "longitude": 2.311085506094106}, {"city": "PARIS", "address": "23 AVENUE DE SEGUR", "name": "SEGUR ESTREES", "latitude": 48.85129433458901, "zip_code": "75007", "number": 7018, "longitude": 2.309747615603337}, {"city": "PARIS", "address": "RUE DE LA CLOTURE / ANGLE RUE DU DEBARCADERE", "name": "GRANDS MOULINS", "latitude": 48.89713005307456, "zip_code": "75019", "number": 19044, "longitude": 2.396079008206681}, {"city": "PARIS", "address": "58 RUE DES VINAIGRIERS", "name": "VINAIGRIERS", "latitude": 48.873267841170026, "zip_code": "75010", "number": 10012, "longitude": 2.359323613430623}, {"city": "PARIS", "address": "3 AVENUE BOSQUET", "name": "PONT DE L'ALMA", "latitude": 48.86164049957625, "zip_code": "75007", "number": 7022, "longitude": 2.302250344175951}, {"city": "PANTIN", "address": "FACE AU 12 RUE CANDALE", "name": "CANDALE (PANTIN)", "latitude": 48.889485840195675, "zip_code": "93500", "number": 35012, "longitude": 2.414307515111288}, {"city": "PARIS", "address": "14 RUE DU PONT NEUF", "name": "PONT NEUF - 14", "latitude": 48.860245194532624, "zip_code": "75001", "number": 1009, "longitude": 2.344333545273837}, {"city": "PARIS", "address": "1 PLACE HENRI ROLLET", "name": "ROLLET", "latitude": 48.83598100445596, "zip_code": "75015", "number": 15051, "longitude": 2.293467119128608}, {"city": "PARIS", "address": "26 RUE MARYSE HILSZ", "name": "STADE MARYSE HILSZ", "latitude": 48.851285276158144, "zip_code": "75020", "number": 20107, "longitude": 2.412733641628248}, {"city": "PARIS", "address": "10 BOULEVARD DES BATIGNOLLES SUR TPC", "name": "CLICHY", "latitude": 48.883318044354574, "zip_code": "75008", "number": 8012, "longitude": 2.326207175385489}, {"city": "PARIS", "address": "FACE 8 RUE SALOMON DE CAUS", "name": "GAITE LYRIQUE", "latitude": 48.86749798940664, "zip_code": "75003", "number": 3012, "longitude": 2.353660816249226}, {"city": "PARIS", "address": "2 RUE DE MAZAGRAN", "name": "BONNE NOUVELLE PROP2", "latitude": 48.870278078579595, "zip_code": "75010", "number": 10105, "longitude": 2.351281636686514}, {"city": "PARIS", "address": "FACE 45 RUE CAUMARTIN", "name": "HAVRE CAUMARTIN", "latitude": 48.872795019872605, "zip_code": "75009", "number": 9033, "longitude": 2.328315742616178}, {"city": "PARIS", "address": "49-51 BD ROMAIN ROLLAND", "name": "ROMAIN ROLLAND", "latitude": 48.820323646126774, "zip_code": "75014", "number": 14116, "longitude": 2.32300304092451}, {"city": "PARIS", "address": "2 RUE MONTGALLET", "name": "MONTGALLET CHARENTON", "latitude": 48.84264777870052, "zip_code": "75012", "number": 12027, "longitude": 2.386164927813738}, {"city": "PARIS", "address": "54 AVENUE EDISON", "name": "EDISON", "latitude": 48.82902666973469, "zip_code": "75013", "number": 13034, "longitude": 2.361069024089417}, {"city": "PARIS", "address": "28 RUE J.B.PIGALLE", "name": "BRUYERE PIGALLE", "latitude": 48.87939826447722, "zip_code": "75009", "number": 9026, "longitude": 2.333709173337285}, {"city": "PARIS", "address": "62 RUE LEGENDRE", "name": "LEGENDRE", "latitude": 48.885437730894544, "zip_code": "75017", "number": 17013, "longitude": 2.316473835914172}, {"city": "MONTREUIL", "address": "175/179 RUE DE PARIS", "name": "PARIS 2 (MONTREUIL)", "latitude": 48.85550131286469, "zip_code": "93100", "number": 31004, "longitude": 2.422055733613231}, {"city": "PARIS", "address": "3 RUE BOUDREAU", "name": "AUBER", "latitude": 48.87219025140095, "zip_code": "75009", "number": 9106, "longitude": 2.329423494000903}, {"city": "PARIS", "address": "12 RUE FRANCOIS MILLET", "name": "MILLET - JEAN DE LA FONTAINE", "latitude": 48.85100487466529, "zip_code": "75016", "number": 16028, "longitude": 2.272469482915694}, {"city": "PARIS", "address": "50 RUE LEIBNITZ", "name": "LEIBNITZ", "latitude": 48.896328348515986, "zip_code": "75018", "number": 18034, "longitude": 2.333390423834684}, {"city": "PARIS", "address": "1 RUE HENRI BARBUSSE", "name": "SAINT MICHEL HENRI BARBUSSE", "latitude": 48.84375698130157, "zip_code": "75005", "number": 5010, "longitude": 2.339306721981416}, {"city": "PARIS", "address": "224 RUE DE BERCY", "name": "DIDEROT BERCY", "latitude": 48.84618800146489, "zip_code": "75012", "number": 12102, "longitude": 2.37040616152132}, {"city": "PARIS", "address": "8-10 RUE DE POISSY", "name": "POISSY", "latitude": 48.84969041137042, "zip_code": "75005", "number": 5019, "longitude": 2.352970183602024}, {"city": "PARIS", "address": "RUE MOLITOR", "name": "RUE MOLITOR", "latitude": 48.84509712653168, "zip_code": "75016", "number": 16038, "longitude": 2.265724147895062}, {"city": "PARIS", "address": "19 RUE ROSSINI", "name": "LAFITTE ROSSINI", "latitude": 48.87334627510507, "zip_code": "75009", "number": 9022, "longitude": 2.337980867701675}, {"city": "PARIS", "address": "80 RUE OBERKAMPF", "name": "SAINT MAUR OBERKAMPF", "latitude": 48.86530798423503, "zip_code": "75011", "number": 11030, "longitude": 2.376019912019568}, {"city": "PARIS", "address": "AVENUE LOUIS BARTHOU / PLACE DE LA COLOMBIE", "name": "BOIS DE BOULOGNE / PORTE DE LA MUETTE 2", "latitude": 48.863757931035046, "zip_code": "75016", "number": 16130, "longitude": 2.267504683574771}, {"city": "VINCENNES", "address": "AVENUE DES MURS DU PARC", "name": "MURS DU PARC (VINCENNES)", "latitude": 48.84696126017499, "zip_code": "94300", "number": 43009, "longitude": 2.452237396596088}, {"city": "PARIS", "address": "2 RUE D'ARSONVAL", "name": "FALGUIERE ARSONVAL", "latitude": 48.84040040365445, "zip_code": "75015", "number": 15113, "longitude": 2.313117867297474}, {"city": "PARIS", "address": "41 QUAI DE L'HORLOGE", "name": "ILE DE LA CITE PONT NEUF", "latitude": 48.857091635218225, "zip_code": "75001", "number": 1001, "longitude": 2.341747995157864}, {"city": "PARIS", "address": "132 BOULEVARD DE CLICHY", "name": "CLICHY", "latitude": 48.88412710804656, "zip_code": "75018", "number": 18044, "longitude": 2.328807098192234}, {"city": "LEVALLOIS", "address": "2 RUE PAUL VAILLANT COUTURIER", "name": "COUTURIER 1 (LEVALLOIS)", "latitude": 48.8936146524531, "zip_code": "92300", "number": 23001, "longitude": 2.277618727223195}, {"city": "PARIS", "address": "18 AVENUE MARC MAHON", "name": "MAC MAHON", "latitude": 48.877532084130166, "zip_code": "75017", "number": 17046, "longitude": 2.294512536052928}, {"city": "PARIS", "address": "FACE 210 AVENUE JEAN JAURES", "name": "CIT\u00c3\u2030 DE LA MUSIQUE", "latitude": 48.8887860708258, "zip_code": "75019", "number": 19018, "longitude": 2.39268612206715}, {"city": "PARIS", "address": "155 AVENUE PAUL VAILLANT COUTURIER", "name": "VAILLANT COUTURIER", "latitude": 48.816980981259285, "zip_code": "75014", "number": 14126, "longitude": 2.332609687921881}, {"city": "PARIS", "address": "85 RUE JEAN DE LA FONTAINE", "name": "MICHEL ANGE AUTEUIL", "latitude": 48.84842761367387, "zip_code": "75016", "number": 16033, "longitude": 2.265253821160005}, {"city": "PARIS", "address": "13 RUE DIDOT", "name": "DIDOT CHATEAU", "latitude": 48.8337, "zip_code": "75014", "number": 14031, "longitude": 2.3215}, {"city": "PARIS", "address": "1 RUE GROS", "name": "MAISON DE RADIO FRANCE", "latitude": 48.851359912581465, "zip_code": "75016", "number": 16029, "longitude": 2.277697269448623}, {"city": "PARIS", "address": "RUE JOUFFROY D'ABBANS", "name": "WAGRAM (17EME ARR.)", "latitude": 48.8842894403224, "zip_code": "75017", "number": 17021, "longitude": 2.305497444260642}, {"city": "PARIS", "address": "180 BOULEVARD DE LA VILLETTE", "name": "JAURES VILLETTE", "latitude": 48.881472498481, "zip_code": "75019", "number": 19116, "longitude": 2.37026248225988}, {"city": "", "address": "FACE 61-63 RUE DIDEROT- 93400 SAINT OUEN", "name": "DIDEROT 2 (SAINT OUEN)", "latitude": 48.91157045930829, "zip_code": "", "number": 34010, "longitude": 2.333910127129224}, {"city": "NEUILLY SUR SEINE", "address": "33 RUE PIERRET", "name": "PIERRET (NEUILLY)", "latitude": 48.883026659159576, "zip_code": "92200", "number": 22006, "longitude": 2.260096983931875}, {"city": "PARIS", "address": "28 RUE DE LORRAINE", "name": "LORRAINE", "latitude": 48.886335082615275, "zip_code": "75019", "number": 19014, "longitude": 2.38246120055766}, {"city": "PARIS", "address": "18 PLACE ADOLPHE CHERIOUX", "name": "PLACE ADOLPHE CHERIOUX", "latitude": 48.839635080561905, "zip_code": "75015", "number": 15038, "longitude": 2.300654459291639}, {"city": "PARIS", "address": "48 BOULEVARD DE CHARONNE", "name": "CHARONNE AVRON", "latitude": 48.85160266522164, "zip_code": "75011", "number": 20043, "longitude": 2.398403047037931}, {"city": "PARIS", "address": "164 RUE DE MENILMONTANT", "name": "MENILMONTANT - PELLEPORT", "latitude": 48.87068263384462, "zip_code": "75020", "number": 20036, "longitude": 2.398959602331646}, {"city": "MONTROUGE", "address": "AVENUE VERDIER ANGLE AVENUE DE LA REPUBLIQUE", "name": "VERDIER (MONTROUGE)", "latitude": 48.815529633678416, "zip_code": "92120", "number": 21207, "longitude": 2.317029863731327}, {"city": "PARIS", "address": "23 RUE DESAIX", "name": "DESAIX", "latitude": 48.852804604940296, "zip_code": "75015", "number": 15067, "longitude": 2.293077029857222}, {"city": "PARIS", "address": "35 RUE VERON", "name": "LEPIC VERON", "latitude": 48.885257971348466, "zip_code": "75018", "number": 18114, "longitude": 2.334617735640665}, {"city": "PARIS", "address": "38 RUE DE LONDRES", "name": "PLACE DE BUDAPEST", "latitude": 48.87775323400056, "zip_code": "75009", "number": 9035, "longitude": 2.327339290714228}, {"city": "PARIS", "address": "108 RUE D'ABOUKIR", "name": "ABOUKIR", "latitude": 48.868660481539266, "zip_code": "75002", "number": 2016, "longitude": 2.35018588824494}, {"city": "PARIS", "address": "41 RUE JUSSIEU", "name": "JUSSIEU", "latitude": 48.847184641150214, "zip_code": "75005", "number": 5021, "longitude": 2.353398379689353}, {"city": "PARIS", "address": "PLACE SAINT PIERRE", "name": "MARCHE ST-PIERRE", "latitude": 48.88469160640549, "zip_code": "75018", "number": 18006, "longitude": 2.344139285947184}, {"city": "PARIS", "address": "25 RUE DU PONT LOUIS PHILIPPE", "name": "MAIRIE DU 4 EME", "latitude": 48.855965856210226, "zip_code": "75004", "number": 4015, "longitude": 2.356381154873061}, {"city": "PARIS", "address": "72 RUE SAINT-FARGEAU", "name": "SAINT FARGEAU MORTIER", "latitude": 48.872747269036246, "zip_code": "75020", "number": 20117, "longitude": 2.408203454302088}, {"city": "PANTIN", "address": "104 AVENUE LOLIVE", "name": "LOLIVE 1 (PANTIN)", "latitude": 48.892139409307205, "zip_code": "93500", "number": 35009, "longitude": 2.409107737701187}, {"city": "PARIS", "address": "FACE 16 RUE DES BATIGNOLLES", "name": "MAIRIE DU 17EME", "latitude": 48.884101293163106, "zip_code": "75017", "number": 17012, "longitude": 2.322206025347343}, {"city": "PARIS", "address": "51 QUAI DE LA SEINE", "name": "SEINE FLANDRE", "latitude": 48.88679881177337, "zip_code": "75019", "number": 19029, "longitude": 2.374719516795626}, {"city": "PARIS", "address": "7 RUE DE METZ", "name": "METZ", "latitude": 48.870893425955984, "zip_code": "75010", "number": 10004, "longitude": 2.353521565011111}, {"city": "PARIS", "address": "21 RUE D'UZES", "name": "BOULEVARD MONTMARTRE", "latitude": 48.87077575727228, "zip_code": "75002", "number": 2010, "longitude": 2.343163334385358}, {"city": "PARIS", "address": "24 RUE DE DOUAI", "name": "FONTAINE DOUAI", "latitude": 48.88235325984544, "zip_code": "75009", "number": 9027, "longitude": 2.333263372748175}, {"city": "PARIS", "address": "18 BD DU TEMPLE", "name": "TEMPLE JEAN PIERRE TIMBAUD", "latitude": 48.86442014173202, "zip_code": "75011", "number": 11040, "longitude": 2.366136374249966}, {"city": "92100 BOULOGNE-BILLANCOURT", "address": "2 BOULEVARD JEAN JAURES", "name": "JAURES 1 (BOULOGNE-BILLANCOURT)", "latitude": 48.8456381388333, "zip_code": "", "number": 21003, "longitude": 2.23701147134366}, {"city": "PARIS", "address": "86 RUE TOLBIAC", "name": "TOLBIAC NATIONALE", "latitude": 48.82690019971573, "zip_code": "75013", "number": 13036, "longitude": 2.365177603483576}, {"city": "IVRY SUR SEINE", "address": "PLACE MARCEL CACHIN", "name": "CACHIN (IVRY)", "latitude": 48.81414053750237, "zip_code": "94200", "number": 42014, "longitude": 2.390909368067142}, {"city": "PARIS", "address": "GARDE DE L'EST-PARVIS GARE DE L'EST", "name": "GARE DE L'EST", "latitude": 48.876419813641114, "zip_code": "75010", "number": 906, "longitude": 2.358630064544601}, {"city": "PARIS", "address": "5 RUE DU COMMANDANT RENE MOUCHOTTE", "name": "MOUCHOTTE", "latitude": 48.83932502506044, "zip_code": "75014", "number": 14117, "longitude": 2.320954125728877}, {"city": "PARIS", "address": "48 RUE LOUIS BLANC", "name": "AQUEDUC", "latitude": 48.88199720999019, "zip_code": "75010", "number": 10031, "longitude": 2.363625214552995}, {"city": "PARIS", "address": "56 RUE CHEVALERET", "name": "CHEVALERET TOLBIAC", "latitude": 48.82941013459557, "zip_code": "75013", "number": 13053, "longitude": 2.375934558013933}, {"city": "PARIS", "address": "1/3 RUE DE ROCHECHOUART", "name": "CADET", "latitude": 48.876719895109, "zip_code": "75009", "number": 9010, "longitude": 2.344393021853951}, {"city": "PARIS", "address": "14 AVENUE VICTORIA", "name": "PLACE DU CHATELET", "latitude": 48.857940092963034, "zip_code": "75001", "number": 1002, "longitude": 2.347010058114489}, {"city": "PARIS", "address": "FACE 14 PL. DU BATAILLON DU PACIFIQUE", "name": "BERCY", "latitude": 48.84026772485455, "zip_code": "75012", "number": 12025, "longitude": 2.379519527723101}, {"city": "PARIS", "address": "2 RUE BENJAMIN GODARD", "name": "GODARD", "latitude": 48.86598324102434, "zip_code": "75016", "number": 16107, "longitude": 2.275725635731198}, {"city": "PARIS", "address": "36-38 RUE REGNAULT", "name": "PATAY REGNAULT", "latitude": 48.82434285685922, "zip_code": "75013", "number": 13118, "longitude": 2.376060091685724}, {"city": "PARIS", "address": "106 RUE ALEXANDRE DUMAS", "name": "PLACE DE LA REUNION", "latitude": 48.85535513998681, "zip_code": "75020", "number": 20013, "longitude": 2.399728589689724}, {"city": "PARIS", "address": "18 BOULEVARD D'AURELLE DE PALADINES", "name": "PALADINES", "latitude": 48.883498081948446, "zip_code": "75017", "number": 17105, "longitude": 2.28201558962579}, {"city": "PARIS", "address": "10 RUE BELIDOR", "name": "PLACE GENERAL KOENIG", "latitude": 48.88023362761321, "zip_code": "75017", "number": 17043, "longitude": 2.285380679473588}, {"city": "PARIS", "address": "56 AVENUE JEAN MOULIN", "name": "JEAN MOULIN", "latitude": 48.82570981702807, "zip_code": "75014", "number": 14037, "longitude": 2.321849987344236}, {"city": "PARIS", "address": "04 PLACE DE LA MADELEINE", "name": "MADELEINE", "latitude": 48.86909008833763, "zip_code": "75008", "number": 8005, "longitude": 2.324429630496505}, {"city": "PARIS", "address": "9 RUE LE GOFF", "name": "GAY LUSSAC LE GOFF", "latitude": 48.84623928170344, "zip_code": "75005", "number": 5003, "longitude": 2.341324916011569}, {"city": "PARIS", "address": "2 RUE DU FAUBOURG DU TEMPLE", "name": "FAUBOURG DU TEMPLE PLACE DE LA REPUBLIQUE", "latitude": 48.868, "zip_code": "75011", "number": 11037, "longitude": 2.36498}, {"city": "PARIS", "address": "68 RUE LOUIS BLANC", "name": "CHAPELLE LOUIS BLANC", "latitude": 48.88384931844148, "zip_code": "75010", "number": 10034, "longitude": 2.360053088985318}, {"city": "MONTROUGE", "address": "100 AVENUE DE LA MARNE", "name": "MARNE (MONTROUGE)", "latitude": 48.811749821310805, "zip_code": "92120", "number": 21211, "longitude": 2.303169887627808}, {"city": "PARIS", "address": "FACE 25 RUE PERGOLESE", "name": "PERGOLESE", "latitude": 48.87518496111192, "zip_code": "75016", "number": 16002, "longitude": 2.284219432060596}, {"city": "PARIS", "address": "FACE 2 PLACE D'ITALIE", "name": "ITALIE ROSALIE", "latitude": 48.83199636916928, "zip_code": "75013", "number": 13008, "longitude": 2.354809472700658}, {"city": "CLICHY", "address": "FACE 51 RUE VILLENEUVE", "name": "VILLENEUVE (CLICHY)", "latitude": 48.90550311453459, "zip_code": "92110", "number": 21110, "longitude": 2.310820381708937}, {"city": "PARIS", "address": "51 RUE GUERSANT", "name": "PORTE DE VILLIERS", "latitude": 48.88287775178599, "zip_code": "75017", "number": 17041, "longitude": 2.287667370814871}, {"city": "PARIS", "address": "1 RUE LAMENNAIS", "name": "LAMENAIS WASHINGTON", "latitude": 48.87355533448877, "zip_code": "75008", "number": 8102, "longitude": 2.303288666125152}, {"city": "PARIS", "address": "17 RUE SAINT AMBROISE", "name": "SAINT AMBROISE PARMENTIER", "latitude": 48.8621350384716, "zip_code": "75011", "number": 11027, "longitude": 2.377229858571335}, {"city": "PARIS", "address": "4 RUE ANDRE GIDE ", "name": "GIDE", "latitude": 48.8365662244334, "zip_code": "75015", "number": 15027, "longitude": 2.312707121097412}, {"city": "PARIS", "address": "3-5 RUE LOUIS GANNE", "name": "LOUIS GANNE", "latitude": 48.86346964122224, "zip_code": "75020", "number": 20045, "longitude": 2.409670100215905}, {"city": "PARIS", "address": "FACE 50 RUE RENE BOULANGER", "name": "JOHANN STRAUSS", "latitude": 48.86849994171273, "zip_code": "75010", "number": 10001, "longitude": 2.359970049607283}, {"city": "PARIS", "address": "DEV 2 RUE JOSEPH LOUVILLE", "name": "CROIX NIVERT", "latitude": 48.844806421735925, "zip_code": "75015", "number": 15021, "longitude": 2.297572005982148}, {"city": "PARIS", "address": "5 RUE BLEUE", "name": "BLEUE", "latitude": 48.87582185503067, "zip_code": "75009", "number": 9113, "longitude": 2.347303230302456}, {"city": "PARIS", "address": "1 RUE DE PONTOISE", "name": "PONTOISE", "latitude": 48.85045800918843, "zip_code": "75005", "number": 5107, "longitude": 2.352454275492188}, {"city": "PARIS", "address": "227 BOULEVARD PEREIRE SUR TPC", "name": "TERNES PEREIRE", "latitude": 48.879813218337546, "zip_code": "75017", "number": 17040, "longitude": 2.287956452342442}, {"city": "FONTENAY SOUS BOIS", "address": "14 AVENUE STALINGRAD", "name": "STALINGRAD (FONTENAY SOUS BOIS)", "latitude": 48.850125232056115, "zip_code": "94120", "number": 41203, "longitude": 2.455529172111142}, {"city": "PARIS", "address": "FACE 3 BD GARIBALDI", "name": "CAMBRONNE", "latitude": 48.84757532146731, "zip_code": "75015", "number": 15010, "longitude": 2.30286310050181}, {"city": "PARIS", "address": "3-5 RUE ROUGEMONT", "name": "ROUGEMONT", "latitude": 48.87154221364212, "zip_code": "75009", "number": 9012, "longitude": 2.345836455597928}, {"city": "PARIS", "address": "25 RUE LOUIS LE GRAND", "name": "OPERA - CAPUCINES", "latitude": 48.870508937203915, "zip_code": "75002", "number": 2015, "longitude": 2.334054461939329}, {"city": "SAINT OUEN", "address": "FACE AU 61 RUE ALBERT DHALENNE", "name": "DHALENNE (SAINT OUEN)", "latitude": 48.914188312399, "zip_code": "93400", "number": 34011, "longitude": 2.33208283587176}, {"city": "BAGNOLET", "address": "RUE DU CHATEAU", "name": "CHATEAU (BAGNOLET)", "latitude": 48.86302549226599, "zip_code": "93170", "number": 31706, "longitude": 2.415622204179507}, {"city": "PARIS", "address": "17 RUE LACUEE", "name": "LACUEE", "latitude": 48.849215862624035, "zip_code": "75012", "number": 12002, "longitude": 2.370503423869599}, {"city": "PARIS", "address": "140 AVENUE DE SUFFREN", "name": "SUFFREN", "latitude": 48.84717561492764, "zip_code": "75015", "number": 15009, "longitude": 2.307052147596786}, {"city": "PARIS", "address": "116 RUE DE REUILLY", "name": "REUILLY", "latitude": 48.84030274499962, "zip_code": "75012", "number": 12036, "longitude": 2.394630398715453}, {"city": "PARIS", "address": "111 BD PORT ROYAL", "name": "PORT ROYAL COCHIN", "latitude": 48.838431825491696, "zip_code": "75014", "number": 14004, "longitude": 2.340794666870659}, {"city": "PARIS", "address": "AV. DUTUIT", "name": "PETIT PALAIS", "latitude": 48.866843803252216, "zip_code": "75008", "number": 8001, "longitude": 2.315779713410026}, {"city": "PARIS", "address": "62 RUE MESLAY", "name": "PORTE SAINT MARTIN", "latitude": 48.86863640502551, "zip_code": "75003", "number": 3101, "longitude": 2.355591592778568}, {"city": "PARIS", "address": "FACE 8 PLACE JACQUES BONSERGENT", "name": "JACQUES BONSERGENT", "latitude": 48.87099998982137, "zip_code": "75010", "number": 10010, "longitude": 2.361141436574885}, {"city": "PARIS", "address": "FACE 153 AVENUE DE CHOISY", "name": "PARC DE CHOISY", "latitude": 48.828156251574946, "zip_code": "75013", "number": 13122, "longitude": 2.358513532903332}, {"city": "PARIS", "address": "1 RUE EMILE BLEMONT", "name": "POTEAU", "latitude": 48.89453090447961, "zip_code": "75018", "number": 18029, "longitude": 2.341541339092219}, {"city": "BOULOGNE-BILLANCOURT", "address": "20 AVENUE ANDRE MORIZET", "name": "MORIZET (BOULOGNE-BILLANCOURT)", "latitude": 48.834953979664654, "zip_code": "92100", "number": 21005, "longitude": 2.241688247102405}, {"city": "PARIS", "address": "12 SQUARE DESNOUETTES", "name": "DESNOUETTES", "latitude": 48.83476837934194, "zip_code": "75015", "number": 15061, "longitude": 2.284142297394666}, {"city": "PARIS", "address": "1 RUE DU COLONEL MONTEIL", "name": "BRUNE", "latitude": 48.82650293311012, "zip_code": "75014", "number": 14122, "longitude": 2.309274799827166}, {"city": "PARIS", "address": "81 RUE MONT-CENIS", "name": "MAIRIE DU 18 EME", "latitude": 48.892925653432606, "zip_code": "75018", "number": 18025, "longitude": 2.344517921162641}, {"city": "PARIS", "address": "RUE VELPEAU", "name": "BON MARCHE", "latitude": 48.85123038028847, "zip_code": "75007", "number": 7003, "longitude": 2.325070038738617}, {"city": "PARIS", "address": "151 AVENUE PARMENTIER", "name": "PARMENTIER LOUVEL-TESSIER", "latitude": 48.87137987425661, "zip_code": "75010", "number": 10113, "longitude": 2.369896383666685}, {"city": "PARIS", "address": "FACE 129 RUE DU FBG SAINT MARTIN", "name": "GARE DE L'EST", "latitude": 48.875670112481366, "zip_code": "75010", "number": 10161, "longitude": 2.359509937592322}, {"city": "PARIS", "address": "245 RUE DE CHARENTON", "name": "WATTIGNIES", "latitude": 48.83667579640627, "zip_code": "75012", "number": 12030, "longitude": 2.391795855555629}, {"city": "PARIS", "address": "2 PLACE DE PASSY", "name": "PLACE DE PASSY", "latitude": 48.85780291711202, "zip_code": "75016", "number": 16043, "longitude": 2.277500546942199}, {"city": "VINCENNES", "address": "COURS DES MARECHAUX", "name": "CHATEAU DE VINCENNES", "latitude": 48.84423193255657, "zip_code": "94300", "number": 12123, "longitude": 2.439209537709179}, {"city": "PARIS", "address": "5 RUE BINET", "name": "BINET", "latitude": 48.899268863316706, "zip_code": "75018", "number": 18122, "longitude": 2.342963477309899}, {"city": "DU GROS CAILLOU, 75007 PARIS", "address": "QUAI D'ORSAY", "name": "PORT DU GROS CAILLOU (STATION MOBILE)", "latitude": 48.86288, "zip_code": "PORT", "number": 908, "longitude": 2.30652}, {"city": "PARIS", "address": "FACE 71 AVENUE DE GRAVELLE", "name": "AVENUE DE GRAVELLE", "latitude": 48.824407767562604, "zip_code": "75012", "number": 12126, "longitude": 2.418455004234756}, {"city": "PARIS", "address": "46 BOULEVARD SAINT JACQUES", "name": "SAINT JACQUES TOMBE ISSOIRE", "latitude": 48.833190318752514, "zip_code": "75014", "number": 14006, "longitude": 2.336933391248149}, {"city": "PARIS", "address": "2 BIS BOULEVARD PEREIRE", "name": "PEREIRE SAUSSURE", "latitude": 48.888185641932566, "zip_code": "75017", "number": 17117, "longitude": 2.310120536549759},